[
  {
    "name": "Narol Circle",
    "full": "Narol Circle, Ahmedabad",
    "lat": 22.9728189,
    "lon": 72.5883525
  },
  {
    "name": "Ensave cooling tower",
    "full": "Ensave cooling tower, Ahmedabad",
    "lat": 22.9636008,
    "lon": 72.5885693
  },
  {
    "name": "Ensave cooling Tower",
    "full": "Ensave cooling Tower, Ahmedabad",
    "lat": 22.96319,
    "lon": 72.5888004
  },
  {
    "name": "Chiripal industries ,pirana",
    "full": "Chiripal industries ,pirana, Ahmedabad",
    "lat": 22.9661748,
    "lon": 72.557483
  },
  {
    "name": "Piplaj",
    "full": "Piplaj, Ahmedabad",
    "lat": 22.969877,
    "lon": 72.5606949
  },
  {
    "name": "Isanpur",
    "full": "Isanpur, Ahmedabad",
    "lat": 22.9811295,
    "lon": 72.6012948
  },
  {
    "name": "Prakashnagar",
    "full": "Prakashnagar, Vatwa Road, Ahmedabad",
    "lat": 22.9781201,
    "lon": 72.5998575
  },
  {
    "name": "Piplaj industrial Area",
    "full": "Piplaj industrial Area, Ahmedabad",
    "lat": 22.9581564,
    "lon": 72.5579239
  },
  {
    "name": "Sahvadi",
    "full": "Sahvadi, Ahmedabad",
    "lat": 22.9736578,
    "lon": 72.567188
  },
  {
    "name": "Lambha",
    "full": "Lambha, Sardar Patel Ring Road, Ahmedabad",
    "lat": 22.9317728,
    "lon": 72.5749418
  },
  {
    "name": "Lambha Mandir",
    "full": "Lambha Mandir, Ahmedabad",
    "lat": 22.9413497,
    "lon": 72.5798073
  },
  {
    "name": "Om shanti nagar 2",
    "full": "Om shanti nagar 2, Ahmedabad",
    "lat": 22.9461238,
    "lon": 72.5972209
  },
  {
    "name": "Narol gam",
    "full": "Narol gam, Ahmedabad",
    "lat": 22.9483926,
    "lon": 72.5977854
  },
  {
    "name": "Bhamaria kuva",
    "full": "Bhamaria kuva, Ahmedabad",
    "lat": 22.9429717,
    "lon": 72.5924099
  },
  {
    "name": "Bhamariya kuva",
    "full": "Bhamariya kuva, Ahmedabad",
    "lat": 22.9434202,
    "lon": 72.592015
  },
  {
    "name": "Evergreen Hotel",
    "full": "Evergreen Hotel, Narol Sarkhej Road, Ahmedabad",
    "lat": 22.9742764,
    "lon": 72.5865341
  },
  {
    "name": "Swastic Center",
    "full": "Swastic Center, Narol Sarkhej Road, Ahmedabad",
    "lat": 22.9718583,
    "lon": 72.5885636
  },
  {
    "name": "Jethabhai's Stepwell",
    "full": "Jethabhai's Stepwell, Ahmedabad",
    "lat": 22.9744693,
    "lon": 72.6033586
  },
  {
    "name": "Aaryan Composites pooja enterprises",
    "full": "Aaryan Composites pooja enterprises, BRTS Route, Ahmedabad",
    "lat": 22.9775305,
    "lon": 72.5886519
  },
  {
    "name": "Shrinath Estate",
    "full": "Shrinath Estate, Ahmedabad",
    "lat": 22.9667708,
    "lon": 72.5840823
  },
  {
    "name": "Bhoomi Textile",
    "full": "Bhoomi Textile, 34, shrinath Es, Narol Circle, 382405, Ahmedabad",
    "lat": 22.9678866,
    "lon": 72.5834326
  },
  {
    "name": "Reliance resin industries",
    "full": "Reliance resin industries, Ahmedabad",
    "lat": 22.9628347,
    "lon": 72.5985939
  },
  {
    "name": "Himalaya Bakery",
    "full": "Himalaya Bakery, Ahmedabad",
    "lat": 22.9798046,
    "lon": 72.5737246
  },
  {
    "name": "Noor Mobile Shop",
    "full": "Noor Mobile Shop, Ahmedabad",
    "lat": 22.9789749,
    "lon": 72.5719973
  },
  {
    "name": "Ahad mobile repair",
    "full": "Ahad mobile repair, Ahmedabad",
    "lat": 22.9787675,
    "lon": 72.5716124
  },
  {
    "name": "Pakiza Pan Parlour",
    "full": "Pakiza Pan Parlour, Ahmedabad",
    "lat": 22.9785959,
    "lon": 72.570559
  },
  {
    "name": "Chand bakery",
    "full": "Chand bakery, Ahmedabad",
    "lat": 22.9795173,
    "lon": 72.5734667
  },
  {
    "name": "Matrupooja Eye Hospital",
    "full": "Matrupooja Eye Hospital, 382443, Ahmedabad",
    "lat": 22.9745791,
    "lon": 72.6024091
  },
  {
    "name": "Chhaya Maternity Nursing Home",
    "full": "Chhaya Maternity Nursing Home, 382443, Ahmedabad",
    "lat": 22.9798599,
    "lon": 72.599806
  },
  {
    "name": "Shilp Orthopaedics And Trauma Centre",
    "full": "Shilp Orthopaedics And Trauma Centre, 380050, Ahmedabad",
    "lat": 22.9830966,
    "lon": 72.6028711
  },
  {
    "name": "Vraj Hospital and Heart Care Center",
    "full": "Vraj Hospital and Heart Care Center, 382443, Ahmedabad",
    "lat": 22.980618,
    "lon": 72.6021999
  },
  {
    "name": "Parth Eye Hospital, Isanpur",
    "full": "Parth Eye Hospital, Isanpur, 382443, Ahmedabad",
    "lat": 22.9798932,
    "lon": 72.5997604
  },
  {
    "name": "Swapn Healthcare Hospital Pvt. Ltd",
    "full": "Swapn Healthcare Hospital Pvt. Ltd, 382443, Ahmedabad",
    "lat": 22.9834237,
    "lon": 72.5971761
  },
  {
    "name": "Dr, Nayan V Shah Surgical Hospital",
    "full": "Dr, Nayan V Shah Surgical Hospital, 382443, Ahmedabad",
    "lat": 22.9809304,
    "lon": 72.5987479
  },
  {
    "name": "Harshil Medical Nursing Home, Isanpur",
    "full": "Harshil Medical Nursing Home, Isanpur, 382443, Ahmedabad",
    "lat": 22.9813563,
    "lon": 72.5988619
  },
  {
    "name": "Geeta Maternity and Polyclinic Nursing Home",
    "full": "Geeta Maternity and Polyclinic Nursing Home, 382443, Ahmedabad",
    "lat": 22.9817137,
    "lon": 72.5982222
  },
  {
    "name": "Gita Mediquip PVT. LTD.",
    "full": "Gita Mediquip PVT. LTD., 168, Shiv Shakti Estate, 382405, Ahmedabad",
    "lat": 22.9778264,
    "lon": 72.5894443
  },
  {
    "name": "Family Care Nursing Home",
    "full": "Family Care Nursing Home, 380050, Ahmedabad",
    "lat": 22.9834589,
    "lon": 72.601811
  },
  {
    "name": "Masjid e Khatimul Ambiya",
    "full": "Masjid e Khatimul Ambiya, Ahmedabad",
    "lat": 22.9795627,
    "lon": 72.5759353
  },
  {
    "name": "Aslali PHC",
    "full": "Aslali PHC, 382427, Ahmedabad",
    "lat": 22.9148067,
    "lon": 72.5936251
  },
  {
    "name": "Limda",
    "full": "Limda, Ahmedabad",
    "lat": 22.9604778,
    "lon": 72.5840655
  },
  {
    "name": "Shri Sai Dental Clinic",
    "full": "Shri Sai Dental Clinic, 382405, Ahmedabad",
    "lat": 22.9658962,
    "lon": 72.5869502
  },
  {
    "name": "Jankalyan Janaseva Hospital",
    "full": "Jankalyan Janaseva Hospital, 382405, Ahmedabad",
    "lat": 22.9634073,
    "lon": 72.5912646
  },
  {
    "name": "Shree Shakti General Hospital",
    "full": "Shree Shakti General Hospital, 382405, Ahmedabad",
    "lat": 22.9666916,
    "lon": 72.5893488
  },
  {
    "name": "Maryam Hospital",
    "full": "Maryam Hospital, 380028, Ahmedabad",
    "lat": 22.981501,
    "lon": 72.588856
  },
  {
    "name": "Narol ICU and Multi Speciality Hospital",
    "full": "Narol ICU and Multi Speciality Hospital, 382405, Ahmedabad",
    "lat": 22.9646691,
    "lon": 72.5903719
  },
  {
    "name": "Mediclaim Hospital",
    "full": "Mediclaim Hospital, 382405, Ahmedabad",
    "lat": 22.9646606,
    "lon": 72.5934357
  },
  {
    "name": "Diya Clinic",
    "full": "Diya Clinic, 382405, Ahmedabad",
    "lat": 22.96343,
    "lon": 72.589033
  },
  {
    "name": "Unique Speciality Clinic",
    "full": "Unique Speciality Clinic, 380028, Ahmedabad",
    "lat": 22.9821082,
    "lon": 72.5859446
  },
  {
    "name": "Janani Women and Children Hospital",
    "full": "Janani Women and Children Hospital, 382405, Ahmedabad",
    "lat": 22.9644685,
    "lon": 72.590532
  },
  {
    "name": "Remedy Hospital",
    "full": "Remedy Hospital, 380050, Ahmedabad",
    "lat": 22.983088,
    "lon": 72.600519
  },
  {
    "name": "Urban Health Centre",
    "full": "Urban Health Centre, 380050, Ahmedabad",
    "lat": 22.980519,
    "lon": 72.602448
  },
  {
    "name": "Dirgayu Orthopedic Hospital",
    "full": "Dirgayu Orthopedic Hospital, 382443, Ahmedabad",
    "lat": 22.9768837,
    "lon": 72.6010063
  },
  {
    "name": "Dr. Bakulesh Madhu",
    "full": "Dr. Bakulesh Madhu, 382443, Ahmedabad",
    "lat": 22.981225,
    "lon": 72.598839
  },
  {
    "name": "Doctor Bhatt's Hospital",
    "full": "Doctor Bhatt's Hospital, 382405, Ahmedabad",
    "lat": 22.971831,
    "lon": 72.604727
  },
  {
    "name": "Medicure Hospital",
    "full": "Medicure Hospital, 382405, Ahmedabad",
    "lat": 22.9704828,
    "lon": 72.5931204
  },
  {
    "name": "Ratan Hospital",
    "full": "Ratan Hospital, 382443, Ahmedabad",
    "lat": 22.977063,
    "lon": 72.592925
  },
  {
    "name": "Dhanwantari Clinic",
    "full": "Dhanwantari Clinic, 382440, Ahmedabad",
    "lat": 22.9490816,
    "lon": 72.5969718
  },
  {
    "name": "Dr. Jayshree Vadher",
    "full": "Dr. Jayshree Vadher, 382443, Ahmedabad",
    "lat": 22.9780991,
    "lon": 72.5993672
  },
  {
    "name": "Shakur Children Hospital",
    "full": "Shakur Children Hospital, 382443, Ahmedabad",
    "lat": 22.979498,
    "lon": 72.5983418
  },
  {
    "name": "Lambha Skin Hospital",
    "full": "Lambha Skin Hospital, 382405, Ahmedabad",
    "lat": 22.9339127,
    "lon": 72.5760578
  },
  {
    "name": "Chiranjeevi Hospital",
    "full": "Chiranjeevi Hospital, 382443, Ahmedabad",
    "lat": 22.975087,
    "lon": 72.601692
  },
  {
    "name": "Ashirvad Hospital",
    "full": "Ashirvad Hospital, 380050, Ahmedabad",
    "lat": 22.979475,
    "lon": 72.601175
  },
  {
    "name": "Jyoti Eye Care Hospital",
    "full": "Jyoti Eye Care Hospital, 380050, Ahmedabad",
    "lat": 22.9831626,
    "lon": 72.6028164
  },
  {
    "name": "New Shraddha Hospital",
    "full": "New Shraddha Hospital, 382443, Ahmedabad",
    "lat": 22.9797902,
    "lon": 72.5969418
  },
  {
    "name": "Dr. Binitha Desai",
    "full": "Dr. Binitha Desai, 382405, Ahmedabad",
    "lat": 22.977918,
    "lon": 72.595312
  },
  {
    "name": "Noble Clinic",
    "full": "Noble Clinic, 382443, Ahmedabad",
    "lat": 22.977722,
    "lon": 72.600505
  },
  {
    "name": "Indira Women's Care and Multi Speciality Hospital",
    "full": "Indira Women's Care and Multi Speciality Hospital, 382440, Ahmedabad",
    "lat": 22.948094,
    "lon": 72.598012
  },
  {
    "name": "Dirdhau Hospital",
    "full": "Dirdhau Hospital, 380043, Ahmedabad",
    "lat": 22.9820852,
    "lon": 72.6032425
  },
  {
    "name": "Sarsij Dental Clinic",
    "full": "Sarsij Dental Clinic, 380050, Ahmedabad",
    "lat": 22.9807648,
    "lon": 72.6027041
  },
  {
    "name": "Dr. K.B. Bhagatariya Hospital",
    "full": "Dr. K.B. Bhagatariya Hospital, 380005, Ahmedabad",
    "lat": 22.972368,
    "lon": 72.5872561
  },
  {
    "name": "Shraddha Hospital",
    "full": "Shraddha Hospital, 380028, Ahmedabad",
    "lat": 22.98027,
    "lon": 72.595008
  },
  {
    "name": "Shree Nathe Hospital",
    "full": "Shree Nathe Hospital, 380050, Ahmedabad",
    "lat": 22.9811997,
    "lon": 72.6023636
  },
  {
    "name": "Prerana Gynec and Maternity Hospital",
    "full": "Prerana Gynec and Maternity Hospital, 382405, Ahmedabad",
    "lat": 22.974803,
    "lon": 72.602266
  },
  {
    "name": "Chirag Clinic",
    "full": "Chirag Clinic, 382440, Ahmedabad",
    "lat": 22.954932,
    "lon": 72.603897
  },
  {
    "name": "Shreeji Children's Hospital",
    "full": "Shreeji Children's Hospital, 380043, Ahmedabad",
    "lat": 22.981784,
    "lon": 72.6029
  },
  {
    "name": "Khana Clinic",
    "full": "Khana Clinic, 382440, Ahmedabad",
    "lat": 22.9525929,
    "lon": 72.6023803
  },
  {
    "name": "Shraddha Orthopaedic Hospital",
    "full": "Shraddha Orthopaedic Hospital, 382443, Ahmedabad",
    "lat": 22.9810392,
    "lon": 72.598519
  },
  {
    "name": "Shraddha Children Hospital",
    "full": "Shraddha Children Hospital, 380050, Ahmedabad",
    "lat": 22.9757579,
    "lon": 72.6022206
  },
  {
    "name": "Aatman Hospital",
    "full": "Aatman Hospital, 380050, Ahmedabad",
    "lat": 22.983673,
    "lon": 72.6001796
  },
  {
    "name": "Anand Children Hospital",
    "full": "Anand Children Hospital, 382443, Ahmedabad",
    "lat": 22.9769658,
    "lon": 72.6009535
  },
  {
    "name": "Kabadi market",
    "full": "Kabadi market, Ahmedabad",
    "lat": 22.9830095,
    "lon": 72.5836927
  },
  {
    "name": "Gujarat Handicrafts",
    "full": "Gujarat Handicrafts, Ahmedabad",
    "lat": 22.9790857,
    "lon": 72.5848755
  },
  {
    "name": "Shilp Industries",
    "full": "Shilp Industries, Ahmedabad",
    "lat": 22.970573,
    "lon": 72.5606288
  },
  {
    "name": "JANKI POLY PLAST",
    "full": "JANKI POLY PLAST, 25/B, SITARAM ESTATE, B/H. AMBICA GLASS, NR. MONY HOTEL, AHMEDABAD, 382443, Ahmedabad",
    "lat": 22.9738305,
    "lon": 72.5986127
  },
  {
    "name": "Monginis",
    "full": "Monginis, Ahmedabad",
    "lat": 22.9837455,
    "lon": 72.6024617
  },
  {
    "name": "Purezr Live Cake & Bakery",
    "full": "Purezr Live Cake & Bakery, Ahmedabad",
    "lat": 22.9838943,
    "lon": 72.6023829
  },
  {
    "name": "Cake 'N' Joy",
    "full": "Cake 'N' Joy, Ahmedabad",
    "lat": 22.9839887,
    "lon": 72.6023132
  },
  {
    "name": "Isanpur",
    "full": "Isanpur, Ahmedabad",
    "lat": 22.976216,
    "lon": 72.6023849
  },
  {
    "name": "Mukesh Industries",
    "full": "Mukesh Industries, Ahmedabad",
    "lat": 22.9740123,
    "lon": 72.5953065
  },
  {
    "name": "Narol",
    "full": "Narol, Ahmedabad",
    "lat": 22.9729765,
    "lon": 72.5895984
  },
  {
    "name": "Kashiram Textiles",
    "full": "Kashiram Textiles, Ahmedabad",
    "lat": 22.9768712,
    "lon": 72.5867831
  },
  {
    "name": "Chandola Octroi Naka",
    "full": "Chandola Octroi Naka, Ahmedabad",
    "lat": 22.9821643,
    "lon": 72.5857084
  },
  {
    "name": "Vishala Bridge",
    "full": "Vishala Bridge, Ahmedabad",
    "lat": 22.9827792,
    "lon": 72.5423602
  },
  {
    "name": "Vishala Bridge",
    "full": "Vishala Bridge, Ahmedabad",
    "lat": 22.9829429,
    "lon": 72.5425747
  },
  {
    "name": "Narol Sarkhej Road",
    "full": "Narol Sarkhej Road, Ahmedabad",
    "lat": 22.9768373,
    "lon": 72.5635052
  },
  {
    "name": "Vatwa Substation",
    "full": "Vatwa Substation, Ahmedabad",
    "lat": 22.9505601,
    "lon": 72.5868322
  },
  {
    "name": "Narol Sarkhej Road",
    "full": "Narol Sarkhej Road, Ahmedabad",
    "lat": 22.9767234,
    "lon": 72.5631065
  },
  {
    "name": "Sardar Patel Ring Road",
    "full": "Sardar Patel Ring Road, Ahmedabad",
    "lat": 22.9294675,
    "lon": 72.5913171
  },
  {
    "name": "Sardar Patel Ring Road",
    "full": "Sardar Patel Ring Road, Ahmedabad",
    "lat": 22.9293974,
    "lon": 72.5931712
  },
  {
    "name": "Aslali Circle",
    "full": "Aslali Circle, Ahmedabad",
    "lat": 22.929571,
    "lon": 72.5949641
  },
  {
    "name": "Sardar Patel Ring Road",
    "full": "Sardar Patel Ring Road, Ahmedabad",
    "lat": 22.9265132,
    "lon": 72.5695899
  },
  {
    "name": "Sardar Patel Ring Road",
    "full": "Sardar Patel Ring Road, Ahmedabad",
    "lat": 22.9304627,
    "lon": 72.6021746
  },
  {
    "name": "Sardar Patel Ring Road",
    "full": "Sardar Patel Ring Road, Ahmedabad",
    "lat": 22.9293445,
    "lon": 72.5912323
  },
  {
    "name": "Sardar Patel Ring Road",
    "full": "Sardar Patel Ring Road, Ahmedabad",
    "lat": 22.9296131,
    "lon": 72.5932437
  },
  {
    "name": "Sardar Patel Ring Road",
    "full": "Sardar Patel Ring Road, Ahmedabad",
    "lat": 22.9302782,
    "lon": 72.6022001
  },
  {
    "name": "Sardar Patel Ring Road",
    "full": "Sardar Patel Ring Road, Ahmedabad",
    "lat": 22.9315043,
    "lon": 72.5361917
  },
  {
    "name": "Sardar Patel Ring Road",
    "full": "Sardar Patel Ring Road, Ahmedabad",
    "lat": 22.9285622,
    "lon": 72.5396698
  },
  {
    "name": "Sardar Patel Ring Road",
    "full": "Sardar Patel Ring Road, Ahmedabad",
    "lat": 22.928726,
    "lon": 72.5398408
  },
  {
    "name": "Sardar Patel Ring Road",
    "full": "Sardar Patel Ring Road, Ahmedabad",
    "lat": 22.926636,
    "lon": 72.5696412
  },
  {
    "name": "Sardar Patel Ring Road",
    "full": "Sardar Patel Ring Road, Ahmedabad",
    "lat": 22.9315758,
    "lon": 72.5362792
  },
  {
    "name": "Chandola Lake",
    "full": "Chandola Lake, Ahmedabad",
    "lat": 22.9872385,
    "lon": 72.5869266
  },
  {
    "name": "Sardar Patel Ring Road",
    "full": "Sardar Patel Ring Road, Ahmedabad",
    "lat": 22.9347071,
    "lon": 72.5188537
  },
  {
    "name": "Sabarmati River",
    "full": "Sabarmati River, Ahmedabad",
    "lat": 22.8844986,
    "lon": 72.5472663
  },
  {
    "name": "Narol Circle",
    "full": "Narol Circle, Ahmedabad",
    "lat": 22.9728728,
    "lon": 72.5882946
  },
  {
    "name": "BRTS Route",
    "full": "BRTS Route, Ahmedabad",
    "lat": 22.976142,
    "lon": 72.6021253
  },
  {
    "name": "BRTS Station",
    "full": "BRTS Station, Ahmedabad",
    "lat": 22.9739947,
    "lon": 72.5952403
  },
  {
    "name": "BRTS Station",
    "full": "BRTS Station, Ahmedabad",
    "lat": 22.976873,
    "lon": 72.5867703
  },
  {
    "name": "BRTS Route",
    "full": "BRTS Route, Ahmedabad",
    "lat": 22.9734022,
    "lon": 72.5923974
  },
  {
    "name": "BRTS Station",
    "full": "BRTS Station, Ahmedabad",
    "lat": 22.9729714,
    "lon": 72.5896353
  },
  {
    "name": "BRTS Route",
    "full": "BRTS Route, Ahmedabad",
    "lat": 22.977415,
    "lon": 72.6062015
  },
  {
    "name": "BRTS Route",
    "full": "BRTS Route, Ahmedabad",
    "lat": 22.9728931,
    "lon": 72.5888465
  },
  {
    "name": "BRTS Station",
    "full": "BRTS Station, Ahmedabad",
    "lat": 22.9821404,
    "lon": 72.585699
  },
  {
    "name": "BRTS Route",
    "full": "BRTS Route, Ahmedabad",
    "lat": 22.9843775,
    "lon": 72.5841098
  },
  {
    "name": "BRTS Route",
    "full": "BRTS Route, Ahmedabad",
    "lat": 22.9795264,
    "lon": 72.586213
  },
  {
    "name": "BRTS Route",
    "full": "BRTS Route, Ahmedabad",
    "lat": 22.9750283,
    "lon": 72.5985888
  },
  {
    "name": "BRTS Route",
    "full": "BRTS Route, Ahmedabad",
    "lat": 22.9747708,
    "lon": 72.5876475
  },
  {
    "name": "Isanpur Flyover",
    "full": "Isanpur Flyover, Ahmedabad",
    "lat": 22.9761128,
    "lon": 72.6018045
  },
  {
    "name": "Sardar Patel Ring Road",
    "full": "Sardar Patel Ring Road, Ahmedabad",
    "lat": 22.9349809,
    "lon": 72.516045
  },
  {
    "name": "Isanpur Flyover",
    "full": "Isanpur Flyover, Ahmedabad",
    "lat": 22.9762106,
    "lon": 72.6016772
  },
  {
    "name": "Isanpur Lake",
    "full": "Isanpur Lake, Ahmedabad",
    "lat": 22.978587,
    "lon": 72.6020039
  },
  {
    "name": "Lambha Mandir Road",
    "full": "Lambha Mandir Road, Ahmedabad",
    "lat": 22.936422,
    "lon": 72.5647462
  },
  {
    "name": "Pirana Substation",
    "full": "Pirana Substation, Ahmedabad",
    "lat": 22.9267847,
    "lon": 72.5569407
  },
  {
    "name": "Piplaj Substation",
    "full": "Piplaj Substation, Ahmedabad",
    "lat": 22.9663994,
    "lon": 72.5534337
  },
  {
    "name": "Municipal Landfill",
    "full": "Municipal Landfill, Ahmedabad",
    "lat": 22.9798773,
    "lon": 72.5671562
  },
  {
    "name": "Piplaj",
    "full": "Piplaj, Ahmedabad",
    "lat": 22.9581552,
    "lon": 72.5579231
  },
  {
    "name": "Pirana Sewage Treatment Plant",
    "full": "Pirana Sewage Treatment Plant, Narol Sarkhej Road, 382405, Ahmedabad",
    "lat": 22.9721791,
    "lon": 72.5488316
  },
  {
    "name": "Vatwa Road",
    "full": "Vatwa Road, Ahmedabad",
    "lat": 22.9812025,
    "lon": 72.6017044
  },
  {
    "name": "Sardar patel industrial estate",
    "full": "Sardar patel industrial estate, Ahmedabad",
    "lat": 22.9628235,
    "lon": 72.5893384
  },
  {
    "name": "Aslali",
    "full": "Aslali, Ahmedabad",
    "lat": 22.9153515,
    "lon": 72.59129
  },
  {
    "name": "Aslali Circle",
    "full": "Aslali Circle, Ahmedabad",
    "lat": 22.9295248,
    "lon": 72.5956135
  },
  {
    "name": "Aslali Circle",
    "full": "Aslali Circle, Ahmedabad",
    "lat": 22.9292849,
    "lon": 72.5953641
  },
  {
    "name": "Aslali Circle",
    "full": "Aslali Circle, Ahmedabad",
    "lat": 22.9293009,
    "lon": 72.595045
  },
  {
    "name": "Aslali Circle",
    "full": "Aslali Circle, Ahmedabad",
    "lat": 22.9297556,
    "lon": 72.5955228
  },
  {
    "name": "Aslali Circle",
    "full": "Aslali Circle, Ahmedabad",
    "lat": 22.9298402,
    "lon": 72.595271
  },
  {
    "name": "Aslali Circle",
    "full": "Aslali Circle, Ahmedabad",
    "lat": 22.9297867,
    "lon": 72.5950533
  },
  {
    "name": "Sardar Patel Ring Road",
    "full": "Sardar Patel Ring Road, Ahmedabad",
    "lat": 22.9251041,
    "lon": 72.5610545
  },
  {
    "name": "avadh greens",
    "full": "avadh greens, Ahmedabad",
    "lat": 22.9399404,
    "lon": 72.5963445
  },
  {
    "name": "Brighton Primary English School",
    "full": "Brighton Primary English School, 380028, Ahmedabad",
    "lat": 22.97988,
    "lon": 72.5727242
  },
  {
    "name": "Farchem Industry",
    "full": "Farchem Industry, Ahmedabad",
    "lat": 22.9787725,
    "lon": 72.5697563
  },
  {
    "name": "Mohamad Ahle Hadish",
    "full": "Mohamad Ahle Hadish, Ahmedabad",
    "lat": 22.979642,
    "lon": 72.5731528
  },
  {
    "name": "Brighton Primary English School",
    "full": "Brighton Primary English School, Ahmedabad",
    "lat": 22.97988,
    "lon": 72.572698
  },
  {
    "name": "Gujarati Medium Government School, Chandola",
    "full": "Gujarati Medium Government School, Chandola, Ahmedabad",
    "lat": 22.9802113,
    "lon": 72.585022
  },
  {
    "name": "Narol Lake",
    "full": "Narol Lake, Ahmedabad",
    "lat": 22.960816,
    "lon": 72.5958021
  },
  {
    "name": "Sardar Patel Ring Road",
    "full": "Sardar Patel Ring Road, Ahmedabad",
    "lat": 22.9296424,
    "lon": 72.593114
  },
  {
    "name": "Sardar Patel Ring Road",
    "full": "Sardar Patel Ring Road, Ahmedabad",
    "lat": 22.9293082,
    "lon": 72.5929902
  },
  {
    "name": "Sardar Patel Ring Road",
    "full": "Sardar Patel Ring Road, Ahmedabad",
    "lat": 22.9292048,
    "lon": 72.5910984
  },
  {
    "name": "Sardar Patel Ring Road",
    "full": "Sardar Patel Ring Road, Ahmedabad",
    "lat": 22.929585,
    "lon": 72.590504
  },
  {
    "name": "Sardar Patel Ring Road",
    "full": "Sardar Patel Ring Road, Ahmedabad",
    "lat": 22.9295876,
    "lon": 72.5913621
  },
  {
    "name": "Sardar Patel Ring Road",
    "full": "Sardar Patel Ring Road, Ahmedabad",
    "lat": 22.9306088,
    "lon": 72.6021714
  },
  {
    "name": "Sardar Patel Ring Road",
    "full": "Sardar Patel Ring Road, Ahmedabad",
    "lat": 22.9301718,
    "lon": 72.6022028
  },
  {
    "name": "Narol Flyover",
    "full": "Narol Flyover, Ahmedabad",
    "lat": 22.9730493,
    "lon": 72.5881698
  },
  {
    "name": "Narol Flyover",
    "full": "Narol Flyover, Ahmedabad",
    "lat": 22.9729111,
    "lon": 72.5881848
  },
  {
    "name": "Sardar Patel Ring Road",
    "full": "Sardar Patel Ring Road, Ahmedabad",
    "lat": 22.9337582,
    "lon": 72.5298784
  },
  {
    "name": "Lambha Mandir Road",
    "full": "Lambha Mandir Road, Ahmedabad",
    "lat": 22.9435639,
    "lon": 72.5868694
  },
  {
    "name": "Lambha Mandir Road",
    "full": "Lambha Mandir Road, Ahmedabad",
    "lat": 22.9446395,
    "lon": 72.591472
  },
  {
    "name": "Flyover",
    "full": "Flyover, Ahmedabad",
    "lat": 22.9642139,
    "lon": 72.5900118
  },
  {
    "name": "Flyover",
    "full": "Flyover, Ahmedabad",
    "lat": 22.9641106,
    "lon": 72.5901517
  },
  {
    "name": "Flyover",
    "full": "Flyover, Ahmedabad",
    "lat": 22.9564185,
    "lon": 72.5918286
  },
  {
    "name": "Flyover",
    "full": "Flyover, Ahmedabad",
    "lat": 22.9567217,
    "lon": 72.5918885
  },
  {
    "name": "Flyover",
    "full": "Flyover, Ahmedabad",
    "lat": 22.9595248,
    "lon": 72.5915711
  },
  {
    "name": "Sardar Patel Ring Road",
    "full": "Sardar Patel Ring Road, Ahmedabad",
    "lat": 22.9265766,
    "lon": 72.5423808
  },
  {
    "name": "Sardar Patel Ring Road",
    "full": "Sardar Patel Ring Road, Ahmedabad",
    "lat": 22.9264492,
    "lon": 72.5423008
  },
  {
    "name": "Narol Flyover",
    "full": "Narol Flyover, Ahmedabad",
    "lat": 22.9728006,
    "lon": 72.5834979
  },
  {
    "name": "Narol Flyover",
    "full": "Narol Flyover, Ahmedabad",
    "lat": 22.9727236,
    "lon": 72.5831932
  },
  {
    "name": "Narol Flyover",
    "full": "Narol Flyover, Ahmedabad",
    "lat": 22.9733593,
    "lon": 72.5924504
  },
  {
    "name": "Narol Flyover",
    "full": "Narol Flyover, Ahmedabad",
    "lat": 22.9731763,
    "lon": 72.5925332
  },
  {
    "name": "Isanpur Flyover",
    "full": "Isanpur Flyover, Ahmedabad",
    "lat": 22.9778946,
    "lon": 72.6005988
  },
  {
    "name": "Isanpur Flyover",
    "full": "Isanpur Flyover, Ahmedabad",
    "lat": 22.9778718,
    "lon": 72.6005675
  },
  {
    "name": "Isanpur Flyover",
    "full": "Isanpur Flyover, Ahmedabad",
    "lat": 22.974241,
    "lon": 72.6030922
  },
  {
    "name": "Isanpur Flyover",
    "full": "Isanpur Flyover, Ahmedabad",
    "lat": 22.9744625,
    "lon": 72.6028402
  },
  {
    "name": "Flyover",
    "full": "Flyover, Ahmedabad",
    "lat": 22.9671943,
    "lon": 72.5886732
  },
  {
    "name": "Flyover",
    "full": "Flyover, Ahmedabad",
    "lat": 22.9591121,
    "lon": 72.5916699
  },
  {
    "name": "Flyover",
    "full": "Flyover, Ahmedabad",
    "lat": 22.9543191,
    "lon": 72.5921213
  },
  {
    "name": "Flyover",
    "full": "Flyover, Ahmedabad",
    "lat": 22.9539924,
    "lon": 72.5920744
  },
  {
    "name": "Sardar Patel Ring Road",
    "full": "Sardar Patel Ring Road, Ahmedabad",
    "lat": 22.9247965,
    "lon": 72.5456285
  },
  {
    "name": "Sardar Patel Ring Road",
    "full": "Sardar Patel Ring Road, Ahmedabad",
    "lat": 22.9248766,
    "lon": 72.5456684
  },
  {
    "name": "Sardar Patel Ring Road",
    "full": "Sardar Patel Ring Road, Ahmedabad",
    "lat": 22.9271005,
    "lon": 72.5414038
  },
  {
    "name": "Sardar Patel Ring Road",
    "full": "Sardar Patel Ring Road, Ahmedabad",
    "lat": 22.9273167,
    "lon": 72.5415844
  },
  {
    "name": "Sardar Patel Ring Road",
    "full": "Sardar Patel Ring Road, Ahmedabad",
    "lat": 22.9256488,
    "lon": 72.5448479
  },
  {
    "name": "Sardar Patel Ring Road",
    "full": "Sardar Patel Ring Road, Ahmedabad",
    "lat": 22.9275125,
    "lon": 72.5825109
  },
  {
    "name": "Sardar Patel Ring Road",
    "full": "Sardar Patel Ring Road, Ahmedabad",
    "lat": 22.9279024,
    "lon": 72.5818842
  },
  {
    "name": "Lambha Substation",
    "full": "Lambha Substation, Ahmedabad",
    "lat": 22.9239969,
    "lon": 72.5627131
  },
  {
    "name": "Substation Access Road",
    "full": "Substation Access Road, Ahmedabad",
    "lat": 22.9648489,
    "lon": 72.5555598
  },
  {
    "name": "Old National Highway 8",
    "full": "Old National Highway 8, Ahmedabad",
    "lat": 23.7041457,
    "lon": 74.7849608
  },
  {
    "name": "Aslali lake",
    "full": "Aslali lake, Ahmedabad",
    "lat": 22.9164208,
    "lon": 72.5954412
  },
  {
    "name": "BRTS",
    "full": "BRTS, Ahmedabad",
    "lat": 23.0213378,
    "lon": 72.5866896
  },
  {
    "name": "National Highway 8 north",
    "full": "National Highway 8 north, Ahmedabad",
    "lat": 23.7041457,
    "lon": 74.7847873
  },
  {
    "name": "National Highway 8 south",
    "full": "National Highway 8 south, Ahmedabad",
    "lat": 23.7040622,
    "lon": 74.7849608
  },
  {
    "name": "State Highway 142",
    "full": "State Highway 142, Ahmedabad",
    "lat": 22.8750137,
    "lon": 72.5149714
  },
  {
    "name": "NH64",
    "full": "NH64, Ahmedabad",
    "lat": 21.9082957,
    "lon": 72.8031909
  },
  {
    "name": "National Highway 48 in Gujarat",
    "full": "National Highway 48 in Gujarat, Ahmedabad",
    "lat": 21.9897888,
    "lon": 73.0165544
  },
  {
    "name": "Sabarmati River",
    "full": "Sabarmati River, Ahmedabad",
    "lat": 23.4458317,
    "lon": 72.8315222
  },
  {
    "name": "Daskroi Taluka",
    "full": "Daskroi Taluka, Ahmedabad",
    "lat": 22.9803811,
    "lon": 72.6324201
  },
  {
    "name": "Maninagar Taluka",
    "full": "Maninagar Taluka, Ahmedabad",
    "lat": 22.992545,
    "lon": 72.60383
  },
  {
    "name": "Vatva Taluka",
    "full": "Vatva Taluka, Ahmedabad",
    "lat": 22.9739899,
    "lon": 72.6035039
  },
  {
    "name": "esdee paints near",
    "full": "esdee paints near, mauraya gidc maha gujrat gidc road, Ahmedabad",
    "lat": 22.906436,
    "lon": 72.436793
  },
  {
    "name": "Shri Raj meatal",
    "full": "Shri Raj meatal, Ahmedabad",
    "lat": 22.9038717,
    "lon": 72.4374833
  },
  {
    "name": "Vaishali bopp tape",
    "full": "Vaishali bopp tape, Ahmedabad",
    "lat": 22.8938783,
    "lon": 72.4540453
  },
  {
    "name": "Matoda",
    "full": "Matoda, Ahmedabad",
    "lat": 22.8838171,
    "lon": 72.3995579
  },
  {
    "name": "SubCentre, Changodar",
    "full": "SubCentre, Changodar, 382210, Ahmedabad",
    "lat": 22.900584,
    "lon": 72.4245867
  },
  {
    "name": "Indian Oil",
    "full": "Indian Oil, Ahmedabad",
    "lat": 22.8671793,
    "lon": 72.4576817
  },
  {
    "name": "Badarkha",
    "full": "Badarkha, Ahmedabad",
    "lat": 22.8401248,
    "lon": 72.4510962
  },
  {
    "name": "Kavitha",
    "full": "Kavitha, Ahmedabad",
    "lat": 22.843323,
    "lon": 72.436629
  },
  {
    "name": "Moraiya",
    "full": "Moraiya, Ahmedabad",
    "lat": 22.8959353,
    "lon": 72.4150525
  },
  {
    "name": "Bhat",
    "full": "Bhat, Ahmedabad",
    "lat": 22.89854,
    "lon": 72.433109
  },
  {
    "name": "Factory road",
    "full": "Factory road, Ahmedabad",
    "lat": 22.9120023,
    "lon": 72.4306725
  },
  {
    "name": "Ahmedabad–Dholera Expressway",
    "full": "Ahmedabad–Dholera Expressway, Ahmedabad",
    "lat": 22.5207891,
    "lon": 72.2984202
  },
  {
    "name": "factory road",
    "full": "factory road, Ahmedabad",
    "lat": 22.906186,
    "lon": 72.4349282
  },
  {
    "name": "factory road",
    "full": "factory road, Ahmedabad",
    "lat": 22.9065266,
    "lon": 72.4354486
  },
  {
    "name": "factory road",
    "full": "factory road, Ahmedabad",
    "lat": 22.9073561,
    "lon": 72.4351409
  },
  {
    "name": "factory road",
    "full": "factory road, Ahmedabad",
    "lat": 22.9068195,
    "lon": 72.4391898
  },
  {
    "name": "factory road",
    "full": "factory road, Ahmedabad",
    "lat": 22.9052796,
    "lon": 72.4380372
  },
  {
    "name": "factory road",
    "full": "factory road, Ahmedabad",
    "lat": 22.9051361,
    "lon": 72.4368459
  },
  {
    "name": "factory road",
    "full": "factory road, Ahmedabad",
    "lat": 22.9047519,
    "lon": 72.4318346
  },
  {
    "name": "factory road",
    "full": "factory road, Ahmedabad",
    "lat": 22.9049005,
    "lon": 72.4338949
  },
  {
    "name": "factory road",
    "full": "factory road, Ahmedabad",
    "lat": 22.9093821,
    "lon": 72.4325623
  },
  {
    "name": "factory road",
    "full": "factory road, Ahmedabad",
    "lat": 22.9082643,
    "lon": 72.4325446
  },
  {
    "name": "factory road",
    "full": "factory road, Ahmedabad",
    "lat": 22.9093926,
    "lon": 72.4343604
  },
  {
    "name": "factory road",
    "full": "factory road, Ahmedabad",
    "lat": 22.9096638,
    "lon": 72.4372548
  },
  {
    "name": "factory road",
    "full": "factory road, Ahmedabad",
    "lat": 22.9088935,
    "lon": 72.4385444
  },
  {
    "name": "factory road",
    "full": "factory road, Ahmedabad",
    "lat": 22.9066073,
    "lon": 72.4336653
  },
  {
    "name": "factory road",
    "full": "factory road, Ahmedabad",
    "lat": 22.9045145,
    "lon": 72.4303655
  },
  {
    "name": "factory road",
    "full": "factory road, Ahmedabad",
    "lat": 22.9038218,
    "lon": 72.4350818
  },
  {
    "name": "factory road",
    "full": "factory road, Ahmedabad",
    "lat": 22.906149,
    "lon": 72.4404454
  },
  {
    "name": "factory road",
    "full": "factory road, Ahmedabad",
    "lat": 22.9127128,
    "lon": 72.4369023
  },
  {
    "name": "factory road",
    "full": "factory road, Ahmedabad",
    "lat": 22.9064285,
    "lon": 72.4283372
  },
  {
    "name": "Factory Road",
    "full": "Factory Road, Ahmedabad",
    "lat": 22.9116985,
    "lon": 72.4406145
  },
  {
    "name": "Factory Road",
    "full": "Factory Road, Ahmedabad",
    "lat": 22.9109577,
    "lon": 72.4407667
  },
  {
    "name": "Factory road",
    "full": "Factory road, Ahmedabad",
    "lat": 22.911665,
    "lon": 72.4347907
  },
  {
    "name": "Factory road",
    "full": "Factory road, Ahmedabad",
    "lat": 22.9102945,
    "lon": 72.4254777
  },
  {
    "name": "Western Dedicated Freight Corridor",
    "full": "Western Dedicated Freight Corridor, Ahmedabad",
    "lat": 22.6779623,
    "lon": 72.719767
  },
  {
    "name": "Western Dedicated Freight Corridor",
    "full": "Western Dedicated Freight Corridor, Ahmedabad",
    "lat": 22.6780015,
    "lon": 72.719809
  },
  {
    "name": "Ahmedabad–Dholera Expressway",
    "full": "Ahmedabad–Dholera Expressway, Ahmedabad",
    "lat": 22.5203336,
    "lon": 72.2987
  },
  {
    "name": "State Highway 4",
    "full": "State Highway 4, Ahmedabad",
    "lat": 22.7526221,
    "lon": 72.4566449
  },
  {
    "name": "State Highway 144",
    "full": "State Highway 144, Ahmedabad",
    "lat": 22.9575783,
    "lon": 72.5705425
  },
  {
    "name": "Bavla Taluka",
    "full": "Bavla Taluka, Ahmedabad",
    "lat": 22.7076958,
    "lon": 72.2334291
  },
  {
    "name": "Dholka Taluka",
    "full": "Dholka Taluka, Ahmedabad",
    "lat": 22.6235439,
    "lon": 72.3573206
  },
  {
    "name": "Sanand Taluka",
    "full": "Sanand Taluka, Ahmedabad",
    "lat": 22.9477529,
    "lon": 72.2868744
  },
  {
    "name": "Western Dedicated Freight Corridor",
    "full": "Western Dedicated Freight Corridor, Ahmedabad",
    "lat": 23.7084979,
    "lon": 74.9705741
  },
  {
    "name": "Ahmedabad–Dholera Expressway",
    "full": "Ahmedabad–Dholera Expressway, Ahmedabad",
    "lat": 22.4269187,
    "lon": 72.2769718
  },
  {
    "name": "Ahmedabad-Dholera Expressway",
    "full": "Ahmedabad-Dholera Expressway, Ahmedabad",
    "lat": 22.339659,
    "lon": 72.2738471
  },
  {
    "name": "Ahmedabad - Botad railway line",
    "full": "Ahmedabad - Botad railway line, Ahmedabad",
    "lat": 22.6413895,
    "lon": 72.1166435
  },
  {
    "name": "Bike Auto Care products",
    "full": "Bike Auto Care products, Ahmedabad",
    "lat": 23.1959555,
    "lon": 72.6346938
  },
  {
    "name": "Cafeteria",
    "full": "Cafeteria, Ahmedabad",
    "lat": 23.1887134,
    "lon": 72.6268235
  },
  {
    "name": "Aqualine SEZ",
    "full": "Aqualine SEZ, 382007, Ahmedabad",
    "lat": 23.1472975,
    "lon": 72.6568075
  },
  {
    "name": "Ken's Koffee Plus Plus",
    "full": "Ken's Koffee Plus Plus, 148-A, NH8C, 382009, Ahmedabad",
    "lat": 23.1964319,
    "lon": 72.6328106
  },
  {
    "name": "Odoo / OpenERP / TinyERP pvt ltd",
    "full": "Odoo / OpenERP / TinyERP pvt ltd, 16,17, Ahmedabad",
    "lat": 23.1934227,
    "lon": 72.6376884
  },
  {
    "name": "Odoo / OpenERP / TinyERP pvt ltd",
    "full": "Odoo / OpenERP / TinyERP pvt ltd, 303, Ahmedabad",
    "lat": 23.1929658,
    "lon": 72.6377281
  },
  {
    "name": "Auditorium",
    "full": "Auditorium, Ahmedabad",
    "lat": 23.1863704,
    "lon": 72.6317549
  },
  {
    "name": "Canteen",
    "full": "Canteen, Ahmedabad",
    "lat": 23.1862186,
    "lon": 72.6329653
  },
  {
    "name": "HOR Men",
    "full": "HOR Men, Ahmedabad",
    "lat": 23.1877554,
    "lon": 72.62685
  },
  {
    "name": "K Wing",
    "full": "K Wing, Ahmedabad",
    "lat": 23.1904873,
    "lon": 72.628403
  },
  {
    "name": "Pay-and-Use Toilet",
    "full": "Pay-and-Use Toilet, Ahmedabad",
    "lat": 23.1966648,
    "lon": 72.6308258
  },
  {
    "name": "Neelkanth Auto",
    "full": "Neelkanth Auto, Ahmedabad",
    "lat": 23.1806904,
    "lon": 72.6386269
  },
  {
    "name": "Shyamrang Bunglows",
    "full": "Shyamrang Bunglows, Sargasan cross road, 382006, Ahmedabad",
    "lat": 23.1972069,
    "lon": 72.6178728
  },
  {
    "name": "Shukan Villas Flats",
    "full": "Shukan Villas Flats, Gandhinagar-Ahmedabad Highway, Ahmedabad",
    "lat": 23.1961447,
    "lon": 72.617051
  },
  {
    "name": "Dev Bhumi Society",
    "full": "Dev Bhumi Society, Sargasan Cross Road, Ahmedabad",
    "lat": 23.1972875,
    "lon": 72.6150032
  },
  {
    "name": "Swagat Rainforest 4",
    "full": "Swagat Rainforest 4, Kh road, Ahmedabad",
    "lat": 23.1981316,
    "lon": 72.6145679
  },
  {
    "name": "Sarthak Flats",
    "full": "Sarthak Flats, Sargasan Cross Road, Ahmedabad",
    "lat": 23.197338,
    "lon": 72.61688
  },
  {
    "name": "Maheshwari kirana and parlour",
    "full": "Maheshwari kirana and parlour, Kh road, Ahmedabad",
    "lat": 23.1972877,
    "lon": 72.6169583
  },
  {
    "name": "Sargasan Cross Road",
    "full": "Sargasan Cross Road, Kh-0, Ahmedabad",
    "lat": 23.1929432,
    "lon": 72.6155283
  },
  {
    "name": "Ambapur",
    "full": "Ambapur, Ahmedabad",
    "lat": 23.150483,
    "lon": 72.6094903
  },
  {
    "name": "Waaree Energies Ltd Gandhinagar",
    "full": "Waaree Energies Ltd Gandhinagar, 332A, 3rd Floor, Infocity Supermall No.1, GH Road, 382009, Ahmedabad",
    "lat": 23.1959579,
    "lon": 72.6337717
  },
  {
    "name": "Samaj Infotech",
    "full": "Samaj Infotech, 236, 2nd Floor, Radhe Square, Nr. Reliance Cross roads, Kudasan, Urjanagar 1, 382421, Ahmedabad",
    "lat": 23.1846955,
    "lon": 72.6297076
  },
  {
    "name": "Vrindavan",
    "full": "Vrindavan, Ahmedabad",
    "lat": 23.1333506,
    "lon": 72.6334745
  },
  {
    "name": "State Bank of India",
    "full": "State Bank of India, Sarthak Mall, 382421, Ahmedabad",
    "lat": 23.1952986,
    "lon": 72.6146307
  },
  {
    "name": "Sarthak Mall",
    "full": "Sarthak Mall, Kh-Road, Nr. Sargasan Crossroad, 382421, Ahmedabad",
    "lat": 23.1951974,
    "lon": 72.614606
  },
  {
    "name": "B-Mart Supermarket",
    "full": "B-Mart Supermarket, Siddhraj Zori, Sargasan Crossroad, 382421, Ahmedabad",
    "lat": 23.1925439,
    "lon": 72.6136546
  },
  {
    "name": "Siddhraj Zori",
    "full": "Siddhraj Zori, Ahmedabad",
    "lat": 23.1924116,
    "lon": 72.6133479
  },
  {
    "name": "Khetlaapa Tea Shop",
    "full": "Khetlaapa Tea Shop, Sargasan Crossroad, 382421, Ahmedabad",
    "lat": 23.1931868,
    "lon": 72.6148754
  },
  {
    "name": "7 Colours Pan Parlor",
    "full": "7 Colours Pan Parlor, Sarthak Mall, Kh-Road, 382421, Ahmedabad",
    "lat": 23.1950881,
    "lon": 72.6146833
  },
  {
    "name": "Shree Verai Mataji Temple",
    "full": "Shree Verai Mataji Temple, Sargasan Village Internal Road, 382421, Ahmedabad",
    "lat": 23.1856304,
    "lon": 72.6165686
  },
  {
    "name": "Shree Sargesvar Mahadev Temple",
    "full": "Shree Sargesvar Mahadev Temple, Sargasan Village Internal Road, 382421, Ahmedabad",
    "lat": 23.1855819,
    "lon": 72.6158267
  },
  {
    "name": "Shree Mahakali Mataji Temple",
    "full": "Shree Mahakali Mataji Temple, Sargasan Village Internal Road, 382421, Ahmedabad",
    "lat": 23.1872476,
    "lon": 72.6157986
  },
  {
    "name": "Kishan Petroleum",
    "full": "Kishan Petroleum, 382421, Ahmedabad",
    "lat": 23.1748208,
    "lon": 72.6271713
  },
  {
    "name": "Sanjivani Heart And Medical Hospital - Gandhinagar",
    "full": "Sanjivani Heart And Medical Hospital - Gandhinagar, 382021, Ahmedabad",
    "lat": 23.1924861,
    "lon": 72.6132895
  },
  {
    "name": "Shreem Multispeciality Dental Clinic",
    "full": "Shreem Multispeciality Dental Clinic, 382421, Ahmedabad",
    "lat": 23.1779864,
    "lon": 72.6292954
  },
  {
    "name": "Sanjivani Babycare Hospital",
    "full": "Sanjivani Babycare Hospital, 382421, Ahmedabad",
    "lat": 23.179368,
    "lon": 72.633425
  },
  {
    "name": "Anshul Homoeopathy Clinic",
    "full": "Anshul Homoeopathy Clinic, 382421, Ahmedabad",
    "lat": 23.178993,
    "lon": 72.629041
  },
  {
    "name": "Shivam Clinic",
    "full": "Shivam Clinic, 382007, Ahmedabad",
    "lat": 23.181673,
    "lon": 72.637304
  },
  {
    "name": "Aashka Multispeciality Hospitals",
    "full": "Aashka Multispeciality Hospitals, 382421, Ahmedabad",
    "lat": 23.1857862,
    "lon": 72.6217901
  },
  {
    "name": "Life Apollo Hospitals",
    "full": "Life Apollo Hospitals, 382421, Ahmedabad",
    "lat": 23.1926044,
    "lon": 72.6385544
  },
  {
    "name": "Dr. Charulata Harshe Clinic",
    "full": "Dr. Charulata Harshe Clinic, 382007, Ahmedabad",
    "lat": 23.1989368,
    "lon": 72.6387319
  },
  {
    "name": "Skin and Cosmetology Clinic",
    "full": "Skin and Cosmetology Clinic, 382421, Ahmedabad",
    "lat": 23.1898721,
    "lon": 72.6083933
  },
  {
    "name": "Vishwas Kamdhenu Panchgavya Aarogya Hospital",
    "full": "Vishwas Kamdhenu Panchgavya Aarogya Hospital, 382421, Ahmedabad",
    "lat": 23.1691147,
    "lon": 72.6129583
  },
  {
    "name": "Health Focus Physiotherapy Clinic",
    "full": "Health Focus Physiotherapy Clinic, 382421, Ahmedabad",
    "lat": 23.1761355,
    "lon": 72.6367501
  },
  {
    "name": "Vachhani Hospital",
    "full": "Vachhani Hospital, 382421, Ahmedabad",
    "lat": 23.179407,
    "lon": 72.634087
  },
  {
    "name": "Kroma Multispeciality Dental Clinic and Implant Centre",
    "full": "Kroma Multispeciality Dental Clinic and Implant Centre, 382421, Ahmedabad",
    "lat": 23.1794518,
    "lon": 72.6341251
  },
  {
    "name": "Dr. Mansi's Dental Clinic and Implant Centre",
    "full": "Dr. Mansi's Dental Clinic and Implant Centre, 382421, Ahmedabad",
    "lat": 23.1946681,
    "lon": 72.6116722
  },
  {
    "name": "Navkar Clinic & Health Care",
    "full": "Navkar Clinic & Health Care, 382421, Ahmedabad",
    "lat": 23.178224,
    "lon": 72.636617
  },
  {
    "name": "SubCentre, Dholakuva",
    "full": "SubCentre, Dholakuva, 382421, Ahmedabad",
    "lat": 23.1909735,
    "lon": 72.6460634
  },
  {
    "name": "SubCentre, Por",
    "full": "SubCentre, Por, 382421, Ahmedabad",
    "lat": 23.1651485,
    "lon": 72.612619
  },
  {
    "name": "SubCentre, Shahpur",
    "full": "SubCentre, Shahpur, 382355, Ahmedabad",
    "lat": 23.1824428,
    "lon": 72.6624932
  },
  {
    "name": "SubCentre, Kudasan",
    "full": "SubCentre, Kudasan, 382421, Ahmedabad",
    "lat": 23.1705683,
    "lon": 72.6210029
  },
  {
    "name": "SubCentre,Koba",
    "full": "SubCentre,Koba, 382421, Ahmedabad",
    "lat": 23.1507438,
    "lon": 72.6402786
  },
  {
    "name": "Zignuts Technolab Private Limited",
    "full": "Zignuts Technolab Private Limited, A409, Siddhraj Zori, Near Sargasan Circle, Sarkhej-Gandhinagar Highway, 382421, Ahmedabad",
    "lat": 23.1924324,
    "lon": 72.6131914
  },
  {
    "name": "GNLU",
    "full": "GNLU, Ahmedabad",
    "lat": 23.1544774,
    "lon": 72.6474537
  },
  {
    "name": "Crucial Software and IT Park Pvt Ltd",
    "full": "Crucial Software and IT Park Pvt Ltd, D 513, VTC, 382421, Ahmedabad",
    "lat": 23.1820609,
    "lon": 72.6279853
  },
  {
    "name": "Radhe Hospital",
    "full": "Radhe Hospital, VTC, Pandit Dindayal Upadhyay Marg, 382421, Ahmedabad",
    "lat": 23.1817847,
    "lon": 72.6280818
  },
  {
    "name": "White House-The Kitchen Store",
    "full": "White House-The Kitchen Store, Shop-7,8,15,16, Ugati Corporate Park, opp. HDFC Bank, Kudasan-Por Road, 382421, Ahmedabad",
    "lat": 23.178689,
    "lon": 72.6368721
  },
  {
    "name": "Kudasan",
    "full": "Kudasan, Ahmedabad",
    "lat": 23.1704419,
    "lon": 72.6234269
  },
  {
    "name": "Gh-0 Cross Roads",
    "full": "Gh-0 Cross Roads, Ahmedabad",
    "lat": 23.1972702,
    "lon": 72.6313609
  },
  {
    "name": "McDonald's",
    "full": "McDonald's, Gandhinagar Bypass Road, 382421, Ahmedabad",
    "lat": 23.1925108,
    "lon": 72.6164238
  },
  {
    "name": "Shiva's Cafe",
    "full": "Shiva's Cafe, Shop no.5 , Ground Floor, Gandhinagar Bypass Road, 382421, Ahmedabad",
    "lat": 23.1923234,
    "lon": 72.6165249
  },
  {
    "name": "Upper Deck",
    "full": "Upper Deck, Gandhinagar Bypass Road, 382421, Ahmedabad",
    "lat": 23.1918606,
    "lon": 72.616653
  },
  {
    "name": "Raysan",
    "full": "Raysan, Ahmedabad",
    "lat": 23.1663935,
    "lon": 72.6483104
  },
  {
    "name": "Infocity",
    "full": "Infocity, Ahmedabad",
    "lat": 23.192258,
    "lon": 72.6397321
  },
  {
    "name": "Infocity",
    "full": "Infocity, Ahmedabad",
    "lat": 23.192258,
    "lon": 72.6396918
  },
  {
    "name": "Dholakuva Circle",
    "full": "Dholakuva Circle, Ahmedabad",
    "lat": 23.1859326,
    "lon": 72.6433126
  },
  {
    "name": "Dholakuva Circle",
    "full": "Dholakuva Circle, Ahmedabad",
    "lat": 23.1859759,
    "lon": 72.6433074
  },
  {
    "name": "Randesan",
    "full": "Randesan, Ahmedabad",
    "lat": 23.1790869,
    "lon": 72.6473227
  },
  {
    "name": "Randesan",
    "full": "Randesan, Ahmedabad",
    "lat": 23.1790845,
    "lon": 72.6472583
  },
  {
    "name": "Koba Circle",
    "full": "Koba Circle, Ahmedabad",
    "lat": 23.1322601,
    "lon": 72.6310326
  },
  {
    "name": "Koba Circle",
    "full": "Koba Circle, Ahmedabad",
    "lat": 23.1322412,
    "lon": 72.6310536
  },
  {
    "name": "Raysan",
    "full": "Raysan, Ahmedabad",
    "lat": 23.1663946,
    "lon": 72.6483397
  },
  {
    "name": "GNLU",
    "full": "GNLU, Ahmedabad",
    "lat": 23.1544678,
    "lon": 72.6474811
  },
  {
    "name": "3D Services India",
    "full": "3D Services India, 408, Sidhhraj Zori, sargasan, 382421, Ahmedabad",
    "lat": 23.1923742,
    "lon": 72.613056
  },
  {
    "name": "CH 0 (Indroda) Circle",
    "full": "CH 0 (Indroda) Circle, Ahmedabad",
    "lat": 23.1959599,
    "lon": 72.6396583
  },
  {
    "name": "Adarsh Prathamik Shala (Elementary school)",
    "full": "Adarsh Prathamik Shala (Elementary school), Ahmedabad",
    "lat": 23.1828788,
    "lon": 72.6619214
  },
  {
    "name": "Momai maa Temple",
    "full": "Momai maa Temple, Ahmedabad",
    "lat": 23.1837422,
    "lon": 72.6622321
  },
  {
    "name": "Limbaj temple",
    "full": "Limbaj temple, Ahmedabad",
    "lat": 23.1841949,
    "lon": 72.6626554
  },
  {
    "name": "Overhead water reservoir",
    "full": "Overhead water reservoir, Ahmedabad",
    "lat": 23.1826631,
    "lon": 72.6623487
  },
  {
    "name": "Kreations Hair & Beauty Studio",
    "full": "Kreations Hair & Beauty Studio, 103, above Domino's Pizza, nr. Reliance Cross Road, 382421, Ahmedabad",
    "lat": 23.1850039,
    "lon": 72.6300012
  },
  {
    "name": "Dr Vijay's Dental Hub",
    "full": "Dr Vijay's Dental Hub, Dr Vijay's Dental Hub, Dr Vijay's Dental Hub, B/101, VRUNDAVAN TRADE CENTER, VTC, Kudasan,, 382421, Ahmedabad",
    "lat": 23.1820114,
    "lon": 72.6286722
  },
  {
    "name": "IDBI Bank",
    "full": "IDBI Bank, Super Mall - Infocity Near Gh \"0\" Circle, Gandhinagar-Sarkhej Highway, 382009, Ahmedabad",
    "lat": 23.1966118,
    "lon": 72.6318002
  },
  {
    "name": "Zold Main Entry Gate",
    "full": "Zold Main Entry Gate, Ahmedabad",
    "lat": 23.1939325,
    "lon": 72.6137661
  },
  {
    "name": "Zold Swimming Pool",
    "full": "Zold Swimming Pool, Ahmedabad",
    "lat": 23.1943503,
    "lon": 72.6135514
  },
  {
    "name": "PDPU",
    "full": "PDPU, Ahmedabad",
    "lat": 23.1549205,
    "lon": 72.6612326
  },
  {
    "name": "PDPU",
    "full": "PDPU, Ahmedabad",
    "lat": 23.154954,
    "lon": 72.6612483
  },
  {
    "name": "Koba Gam",
    "full": "Koba Gam, Ahmedabad",
    "lat": 23.147591,
    "lon": 72.6439246
  },
  {
    "name": "Koba Gam",
    "full": "Koba Gam, Ahmedabad",
    "lat": 23.1476221,
    "lon": 72.643885
  },
  {
    "name": "Juna Koba",
    "full": "Juna Koba, Ahmedabad",
    "lat": 23.1419589,
    "lon": 72.6386326
  },
  {
    "name": "Juna Koba",
    "full": "Juna Koba, Ahmedabad",
    "lat": 23.1420026,
    "lon": 72.6385841
  },
  {
    "name": "Juna Koba",
    "full": "Juna Koba, Ahmedabad",
    "lat": 23.1419718,
    "lon": 72.6386122
  },
  {
    "name": "Koba Circle",
    "full": "Koba Circle, Ahmedabad",
    "lat": 23.1322508,
    "lon": 72.631042
  },
  {
    "name": "Raysan",
    "full": "Raysan, Ahmedabad",
    "lat": 23.1663954,
    "lon": 72.6483252
  },
  {
    "name": "Randesan",
    "full": "Randesan, Ahmedabad",
    "lat": 23.1790845,
    "lon": 72.6472905
  },
  {
    "name": "Dholakuva Circle",
    "full": "Dholakuva Circle, Ahmedabad",
    "lat": 23.1859445,
    "lon": 72.6433202
  },
  {
    "name": "Infocity",
    "full": "Infocity, Ahmedabad",
    "lat": 23.1922574,
    "lon": 72.6397126
  },
  {
    "name": "GNLU",
    "full": "GNLU, Ahmedabad",
    "lat": 23.1544724,
    "lon": 72.6474689
  },
  {
    "name": "Logieagle Private Limited",
    "full": "Logieagle Private Limited, 805-806, Shreeji Signature, Opposite Aashka Hospital, Sargasan, 382421, Ahmedabad",
    "lat": 23.1848253,
    "lon": 72.6230287
  },
  {
    "name": "Unlock The Salon",
    "full": "Unlock The Salon, Ahmedabad",
    "lat": 23.1844953,
    "lon": 72.6297208
  },
  {
    "name": "PDPU",
    "full": "PDPU, Ahmedabad",
    "lat": 23.1548645,
    "lon": 72.6612117
  },
  {
    "name": "Starbucks",
    "full": "Starbucks, Ahmedabad",
    "lat": 23.1849638,
    "lon": 72.6304054
  },
  {
    "name": "Urban Dosa House",
    "full": "Urban Dosa House, 382421, Ahmedabad",
    "lat": 23.1846554,
    "lon": 72.6293004
  },
  {
    "name": "Hillton",
    "full": "Hillton, 301-310, 382421, Ahmedabad",
    "lat": 23.1848365,
    "lon": 72.6291705
  },
  {
    "name": "Downtown",
    "full": "Downtown, Ahmedabad",
    "lat": 23.1845139,
    "lon": 72.6312887
  },
  {
    "name": "Rasam Thal",
    "full": "Rasam Thal, Ahmedabad",
    "lat": 23.1849769,
    "lon": 72.6312398
  },
  {
    "name": "Banna's Tea Stall",
    "full": "Banna's Tea Stall, 382421, Ahmedabad",
    "lat": 23.1885733,
    "lon": 72.6302431
  },
  {
    "name": "Dhirubhai Ambani University Map",
    "full": "Dhirubhai Ambani University Map, Ahmedabad",
    "lat": 23.1885105,
    "lon": 72.6292037
  },
  {
    "name": "Metropolis Healthcare Ltd",
    "full": "Metropolis Healthcare Ltd, Radhe Signature A, 12, Sardar Chowk Road, Kudasan, 382421, Ahmedabad",
    "lat": 23.1794776,
    "lon": 72.6335781
  },
  {
    "name": "GH Road",
    "full": "GH Road, Ahmedabad",
    "lat": 23.2026874,
    "lon": 72.6335071
  },
  {
    "name": "G Road",
    "full": "G Road, Ahmedabad",
    "lat": 23.2001631,
    "lon": 72.624012
  },
  {
    "name": "Road 2",
    "full": "Road 2, Ahmedabad",
    "lat": 23.2020664,
    "lon": 72.6475564
  },
  {
    "name": "Gandhinagar-Ahmedabad Highway",
    "full": "Gandhinagar-Ahmedabad Highway, Ahmedabad",
    "lat": 23.1357601,
    "lon": 72.6332379
  },
  {
    "name": "Gandhinagar-Ahmedabad Highway",
    "full": "Gandhinagar-Ahmedabad Highway, Ahmedabad",
    "lat": 23.1295985,
    "lon": 72.6324418
  },
  {
    "name": "Koba Circle",
    "full": "Koba Circle, Ahmedabad",
    "lat": 23.1337368,
    "lon": 72.6329401
  },
  {
    "name": "Gandhinagar-Sarkhej Highway",
    "full": "Gandhinagar-Sarkhej Highway, Ahmedabad",
    "lat": 23.1928814,
    "lon": 72.6157836
  },
  {
    "name": "Sarkhej-Gandhinagar Highway",
    "full": "Sarkhej-Gandhinagar Highway, Ahmedabad",
    "lat": 23.1930145,
    "lon": 72.6157171
  },
  {
    "name": "Koba - Gandhinagar Highway",
    "full": "Koba - Gandhinagar Highway, Ahmedabad",
    "lat": 23.1445974,
    "lon": 72.6339872
  },
  {
    "name": "Gandhinagar-Ahmedabad Highway",
    "full": "Gandhinagar-Ahmedabad Highway, Ahmedabad",
    "lat": 23.1378868,
    "lon": 72.6332795
  },
  {
    "name": "Gandhinagar-Ahmedabad Highway",
    "full": "Gandhinagar-Ahmedabad Highway, Ahmedabad",
    "lat": 23.1376739,
    "lon": 72.633442
  },
  {
    "name": "Raysan Road",
    "full": "Raysan Road, Ahmedabad",
    "lat": 23.1669204,
    "lon": 72.6425356
  },
  {
    "name": "Broken Bridge",
    "full": "Broken Bridge, Ahmedabad",
    "lat": 23.1856842,
    "lon": 72.6576228
  },
  {
    "name": "Gandhinagar Bypass Road",
    "full": "Gandhinagar Bypass Road, Ahmedabad",
    "lat": 23.1856479,
    "lon": 72.6471564
  },
  {
    "name": "CH Road",
    "full": "CH Road, Ahmedabad",
    "lat": 23.2003872,
    "lon": 72.6411186
  },
  {
    "name": "Gandhinagar-Sarkhej Highway",
    "full": "Gandhinagar-Sarkhej Highway, Ahmedabad",
    "lat": 23.19591,
    "lon": 72.6388617
  },
  {
    "name": "Koba - Gandhinagar Highway",
    "full": "Koba - Gandhinagar Highway, Ahmedabad",
    "lat": 23.1907366,
    "lon": 72.6392719
  },
  {
    "name": "Sector 1",
    "full": "Sector 1, Ahmedabad",
    "lat": 23.2001961,
    "lon": 72.6458054
  },
  {
    "name": "Sector 2",
    "full": "Sector 2, Ahmedabad",
    "lat": 23.2021532,
    "lon": 72.6371405
  },
  {
    "name": "Sector 3",
    "full": "Sector 3, Ahmedabad",
    "lat": 23.2042803,
    "lon": 72.6297672
  },
  {
    "name": "Sector 8",
    "full": "Sector 8, Ahmedabad",
    "lat": 23.2060592,
    "lon": 72.650842
  },
  {
    "name": "Tower 1",
    "full": "Tower 1, Ahmedabad",
    "lat": 23.1935297,
    "lon": 72.6379353
  },
  {
    "name": "Narmada Canal",
    "full": "Narmada Canal, Ahmedabad",
    "lat": 23.1506712,
    "lon": 72.5738601
  },
  {
    "name": "DAIICT",
    "full": "DAIICT, Ahmedabad",
    "lat": 23.188608,
    "lon": 72.6296675
  },
  {
    "name": "Gandhinagar-Ahmedabad Highway",
    "full": "Gandhinagar-Ahmedabad Highway, Ahmedabad",
    "lat": 23.1358424,
    "lon": 72.6330199
  },
  {
    "name": "Gandhinagar-Ahmedabad Highway",
    "full": "Gandhinagar-Ahmedabad Highway, Ahmedabad",
    "lat": 23.1296745,
    "lon": 72.6326978
  },
  {
    "name": "Gandhinagar-Ahmedabad Highway",
    "full": "Gandhinagar-Ahmedabad Highway, Ahmedabad",
    "lat": 23.1333935,
    "lon": 72.6327999
  },
  {
    "name": "Sabarmati",
    "full": "Sabarmati, Ahmedabad",
    "lat": 23.3145701,
    "lon": 72.7349892
  },
  {
    "name": "Gandhinagar Bypass Road",
    "full": "Gandhinagar Bypass Road, Ahmedabad",
    "lat": 23.1848123,
    "lon": 72.6669933
  },
  {
    "name": "Gandhinagar Bypass Road",
    "full": "Gandhinagar Bypass Road, Ahmedabad",
    "lat": 23.1890503,
    "lon": 72.6199626
  },
  {
    "name": "Aqualine SEZ",
    "full": "Aqualine SEZ, Ahmedabad",
    "lat": 23.1519169,
    "lon": 72.6461048
  },
  {
    "name": "Randesan Road",
    "full": "Randesan Road, Ahmedabad",
    "lat": 23.1744031,
    "lon": 72.642734
  },
  {
    "name": "Service Road",
    "full": "Service Road, Ahmedabad",
    "lat": 23.174306,
    "lon": 72.6377701
  },
  {
    "name": "Urjanagar-1 Society",
    "full": "Urjanagar-1 Society, Ahmedabad",
    "lat": 23.1738084,
    "lon": 72.6421069
  },
  {
    "name": "Service Road",
    "full": "Service Road, Ahmedabad",
    "lat": 23.1634689,
    "lon": 72.6365651
  },
  {
    "name": "Koba - Gandhinagar Highway",
    "full": "Koba - Gandhinagar Highway, Ahmedabad",
    "lat": 23.1615353,
    "lon": 72.6357918
  },
  {
    "name": "KH Road",
    "full": "KH Road, Ahmedabad",
    "lat": 23.1998028,
    "lon": 72.6153872
  },
  {
    "name": "Indroda Nature Park",
    "full": "Indroda Nature Park, 382007, Ahmedabad",
    "lat": 23.1928037,
    "lon": 72.6505269
  },
  {
    "name": "Super Mall 2",
    "full": "Super Mall 2, Ahmedabad",
    "lat": 23.1963345,
    "lon": 72.6322545
  },
  {
    "name": "Infocity Club & Resort",
    "full": "Infocity Club & Resort, Ahmedabad",
    "lat": 23.1949693,
    "lon": 72.6361096
  },
  {
    "name": "Tower 2",
    "full": "Tower 2, Ahmedabad",
    "lat": 23.1928817,
    "lon": 72.6378161
  },
  {
    "name": "Indroda",
    "full": "Indroda, Ahmedabad",
    "lat": 23.1975131,
    "lon": 72.6564616
  },
  {
    "name": "Aranya Udhyan",
    "full": "Aranya Udhyan, Ahmedabad",
    "lat": 23.1947544,
    "lon": 72.672213
  },
  {
    "name": "National Institute of Design - NID Gandhinagar",
    "full": "National Institute of Design - NID Gandhinagar, Ahmedabad",
    "lat": 23.1866814,
    "lon": 72.631531
  },
  {
    "name": "Infocity",
    "full": "Infocity, Ahmedabad",
    "lat": 23.1933064,
    "lon": 72.6346146
  },
  {
    "name": "Dholakuva",
    "full": "Dholakuva, Ahmedabad",
    "lat": 23.1887784,
    "lon": 72.6448602
  },
  {
    "name": "Pandit Dindayal Upadhyay Marg",
    "full": "Pandit Dindayal Upadhyay Marg, Ahmedabad",
    "lat": 23.1804413,
    "lon": 72.6290259
  },
  {
    "name": "A Wing",
    "full": "A Wing, Ahmedabad",
    "lat": 23.18707,
    "lon": 72.6266966
  },
  {
    "name": "G Wing",
    "full": "G Wing, Ahmedabad",
    "lat": 23.187772,
    "lon": 72.6272665
  },
  {
    "name": "C Wing",
    "full": "C Wing, Ahmedabad",
    "lat": 23.1874341,
    "lon": 72.6270641
  },
  {
    "name": "D Wing",
    "full": "D Wing, Ahmedabad",
    "lat": 23.187084,
    "lon": 72.6271004
  },
  {
    "name": "E Wing",
    "full": "E Wing, Ahmedabad",
    "lat": 23.1880564,
    "lon": 72.6266327
  },
  {
    "name": "F Wing",
    "full": "F Wing, Ahmedabad",
    "lat": 23.1880776,
    "lon": 72.6270778
  },
  {
    "name": "Ground",
    "full": "Ground, Ahmedabad",
    "lat": 23.1900993,
    "lon": 72.6269282
  },
  {
    "name": "Tata Consultancy Services",
    "full": "Tata Consultancy Services, Ahmedabad",
    "lat": 23.1924646,
    "lon": 72.6282796
  },
  {
    "name": "Sargasan",
    "full": "Sargasan, Ahmedabad",
    "lat": 23.1844134,
    "lon": 72.6150186
  },
  {
    "name": "Somnath Park Society Road",
    "full": "Somnath Park Society Road, Ahmedabad",
    "lat": 23.1954561,
    "lon": 72.6131168
  },
  {
    "name": "Siddharaj Zold Road",
    "full": "Siddharaj Zold Road, Ahmedabad",
    "lat": 23.1932878,
    "lon": 72.6138629
  },
  {
    "name": "Lotus Pond",
    "full": "Lotus Pond, Ahmedabad",
    "lat": 23.1885787,
    "lon": 72.6288929
  },
  {
    "name": "Auditorium Buillding",
    "full": "Auditorium Buillding, Ahmedabad",
    "lat": 23.1556865,
    "lon": 72.6672108
  },
  {
    "name": "GERMI Building",
    "full": "GERMI Building, Ahmedabad",
    "lat": 23.1549588,
    "lon": 72.6652785
  },
  {
    "name": "GNLU library",
    "full": "GNLU library, Ahmedabad",
    "lat": 23.1532574,
    "lon": 72.6607106
  },
  {
    "name": "Gujarat National Law University",
    "full": "Gujarat National Law University, Ahmedabad",
    "lat": 23.15183,
    "lon": 72.6602639
  },
  {
    "name": "Mess Building",
    "full": "Mess Building, Ahmedabad",
    "lat": 23.1570482,
    "lon": 72.6658769
  },
  {
    "name": "Pandit Deendayal Energy University",
    "full": "Pandit Deendayal Energy University, Ahmedabad",
    "lat": 23.1563699,
    "lon": 72.6650932
  },
  {
    "name": "SOT",
    "full": "SOT, Ahmedabad",
    "lat": 23.1556071,
    "lon": 72.6644457
  },
  {
    "name": "SPT-1",
    "full": "SPT-1, Ahmedabad",
    "lat": 23.1547588,
    "lon": 72.6667578
  },
  {
    "name": "SPT-2",
    "full": "SPT-2, Ahmedabad",
    "lat": 23.1552625,
    "lon": 72.6655838
  },
  {
    "name": "Resource Centre",
    "full": "Resource Centre, Ahmedabad",
    "lat": 23.1889268,
    "lon": 72.6285805
  },
  {
    "name": "G Road",
    "full": "G Road, Ahmedabad",
    "lat": 23.2001666,
    "lon": 72.6239234
  },
  {
    "name": "Gandhinagar Bypass Road",
    "full": "Gandhinagar Bypass Road, Ahmedabad",
    "lat": 23.1854836,
    "lon": 72.6270313
  },
  {
    "name": "Gandhinagar Bypass Road",
    "full": "Gandhinagar Bypass Road, Ahmedabad",
    "lat": 23.1852669,
    "lon": 72.6270478
  },
  {
    "name": "Gandhinagar-Sarkhej Highway",
    "full": "Gandhinagar-Sarkhej Highway, Ahmedabad",
    "lat": 23.1877328,
    "lon": 72.6058906
  },
  {
    "name": "Gandhinagar Bypass Road",
    "full": "Gandhinagar Bypass Road, Ahmedabad",
    "lat": 23.1856938,
    "lon": 72.6337941
  },
  {
    "name": "Koba - Gandhinagar Highway",
    "full": "Koba - Gandhinagar Highway, Ahmedabad",
    "lat": 23.1907574,
    "lon": 72.6389164
  },
  {
    "name": "Swagat Circle",
    "full": "Swagat Circle, Ahmedabad",
    "lat": 23.1857537,
    "lon": 72.6385445
  },
  {
    "name": "Gandhinagar-Ahmedabad Highway",
    "full": "Gandhinagar-Ahmedabad Highway, Ahmedabad",
    "lat": 23.15927,
    "lon": 72.6357456
  },
  {
    "name": "Gandhinagar Bypass Road",
    "full": "Gandhinagar Bypass Road, Ahmedabad",
    "lat": 23.1854745,
    "lon": 72.6338315
  },
  {
    "name": "Gandhinagar Bypass Road",
    "full": "Gandhinagar Bypass Road, Ahmedabad",
    "lat": 23.1855055,
    "lon": 72.6471701
  },
  {
    "name": "Broken Bridge",
    "full": "Broken Bridge, Ahmedabad",
    "lat": 23.1855976,
    "lon": 72.657623
  },
  {
    "name": "Gandhinagar Bypass Road",
    "full": "Gandhinagar Bypass Road, Ahmedabad",
    "lat": 23.1846568,
    "lon": 72.6669182
  },
  {
    "name": "Service Road",
    "full": "Service Road, Ahmedabad",
    "lat": 23.1909414,
    "lon": 72.638543
  },
  {
    "name": "GH Road",
    "full": "GH Road, Ahmedabad",
    "lat": 23.2026205,
    "lon": 72.6337096
  },
  {
    "name": "CH Road",
    "full": "CH Road, Ahmedabad",
    "lat": 23.2003214,
    "lon": 72.6413675
  },
  {
    "name": "Road 2",
    "full": "Road 2, Ahmedabad",
    "lat": 23.201997,
    "lon": 72.6474878
  },
  {
    "name": "GIFT City Bridge",
    "full": "GIFT City Bridge, Ahmedabad",
    "lat": 23.1513495,
    "lon": 72.6765903
  },
  {
    "name": "GIFT City Road",
    "full": "GIFT City Road, Ahmedabad",
    "lat": 23.1737699,
    "lon": 72.6726231
  },
  {
    "name": "GIFT City Road",
    "full": "GIFT City Road, Ahmedabad",
    "lat": 23.1578143,
    "lon": 72.6794718
  },
  {
    "name": "GIFT City Road",
    "full": "GIFT City Road, Ahmedabad",
    "lat": 23.1578474,
    "lon": 72.6795287
  },
  {
    "name": "H Wing",
    "full": "H Wing, Ahmedabad",
    "lat": 23.1877261,
    "lon": 72.6264684
  },
  {
    "name": "Student Activity Center 1",
    "full": "Student Activity Center 1, Ahmedabad",
    "lat": 23.1893026,
    "lon": 72.6267421
  },
  {
    "name": "OAT",
    "full": "OAT, Ahmedabad",
    "lat": 23.1889666,
    "lon": 72.6268304
  },
  {
    "name": "Faculty Residence 1",
    "full": "Faculty Residence 1, Ahmedabad",
    "lat": 23.1901244,
    "lon": 72.6291376
  },
  {
    "name": "Faculty Residence 2",
    "full": "Faculty Residence 2, Ahmedabad",
    "lat": 23.1902684,
    "lon": 72.6291474
  },
  {
    "name": "Faculty Residence 3",
    "full": "Faculty Residence 3, Ahmedabad",
    "lat": 23.1904167,
    "lon": 72.6291676
  },
  {
    "name": "Faculty Residence 4",
    "full": "Faculty Residence 4, Ahmedabad",
    "lat": 23.1905598,
    "lon": 72.629187
  },
  {
    "name": "Student Activity Center 2",
    "full": "Student Activity Center 2, Ahmedabad",
    "lat": 23.1903686,
    "lon": 72.6278263
  },
  {
    "name": "Cafeteria Building",
    "full": "Cafeteria Building, Ahmedabad",
    "lat": 23.1885118,
    "lon": 72.6268329
  },
  {
    "name": "NIFT",
    "full": "NIFT, Ahmedabad",
    "lat": 23.19141,
    "lon": 72.6291626
  },
  {
    "name": "Dhirubhai Ambani Institute of Information and Communication Technology",
    "full": "Dhirubhai Ambani Institute of Information and Communication Technology, Ahmedabad",
    "lat": 23.1883886,
    "lon": 72.6281518
  },
  {
    "name": "Lecture Theatre 2",
    "full": "Lecture Theatre 2, Ahmedabad",
    "lat": 23.186472,
    "lon": 72.6287886
  },
  {
    "name": "Lecture Theatre 1",
    "full": "Lecture Theatre 1, Ahmedabad",
    "lat": 23.1863909,
    "lon": 72.6284902
  },
  {
    "name": "Super mall 1",
    "full": "Super mall 1, Ahmedabad",
    "lat": 23.1961449,
    "lon": 72.6336724
  },
  {
    "name": "Information and Library Network Centre",
    "full": "Information and Library Network Centre, Ahmedabad",
    "lat": 23.1886648,
    "lon": 72.6333042
  },
  {
    "name": "Information and Library Network Centre",
    "full": "Information and Library Network Centre, Ahmedabad",
    "lat": 23.1884323,
    "lon": 72.6332519
  },
  {
    "name": "Girls Hostel",
    "full": "Girls Hostel, Ahmedabad",
    "lat": 23.1868101,
    "lon": 72.632605
  },
  {
    "name": "Boys Hostel",
    "full": "Boys Hostel, Ahmedabad",
    "lat": 23.1867284,
    "lon": 72.632981
  },
  {
    "name": "KMC",
    "full": "KMC, Ahmedabad",
    "lat": 23.1868701,
    "lon": 72.6315144
  },
  {
    "name": "Kudasan-Por Road",
    "full": "Kudasan-Por Road, Ahmedabad",
    "lat": 23.179607,
    "lon": 72.6330574
  },
  {
    "name": "Aawaass Road",
    "full": "Aawaass Road, Ahmedabad",
    "lat": 23.1831421,
    "lon": 72.6526922
  },
  {
    "name": "Shukan Sky",
    "full": "Shukan Sky, Ahmedabad",
    "lat": 23.1730825,
    "lon": 72.638755
  },
  {
    "name": "Shree Rang Upvan",
    "full": "Shree Rang Upvan, Ahmedabad",
    "lat": 23.1578027,
    "lon": 72.6576311
  },
  {
    "name": "City Pulse",
    "full": "City Pulse, Near Koba Circle, Village Kudasan, 382010, Ahmedabad",
    "lat": 23.1753268,
    "lon": 72.6392132
  },
  {
    "name": "Bhagat Singh Marg",
    "full": "Bhagat Singh Marg, Ahmedabad",
    "lat": 23.1820714,
    "lon": 72.6228698
  },
  {
    "name": "Suryajyot Lake",
    "full": "Suryajyot Lake, Ahmedabad",
    "lat": 23.1999013,
    "lon": 72.6494062
  },
  {
    "name": "Sant Sarovar Dam",
    "full": "Sant Sarovar Dam, Ahmedabad",
    "lat": 23.1998916,
    "lon": 72.6637473
  },
  {
    "name": "Aawaass River Front",
    "full": "Aawaass River Front, Ahmedabad",
    "lat": 23.1832854,
    "lon": 72.6516645
  },
  {
    "name": "Shree Rang Oasis શ્રી રંગ ઓએસિસ",
    "full": "Shree Rang Oasis શ્રી રંગ ઓએસિસ, Ahmedabad",
    "lat": 23.1844327,
    "lon": 72.6517539
  },
  {
    "name": "Shree Rang Aroma",
    "full": "Shree Rang Aroma, Ahmedabad",
    "lat": 23.1847029,
    "lon": 72.6501887
  },
  {
    "name": "GIFT City",
    "full": "GIFT City, Ahmedabad",
    "lat": 23.162568,
    "lon": 72.6831993
  },
  {
    "name": "Mahavirpuram",
    "full": "Mahavirpuram, Ahmedabad",
    "lat": 23.1517323,
    "lon": 72.6528677
  },
  {
    "name": "Shree Rang Upvan",
    "full": "Shree Rang Upvan, Ahmedabad",
    "lat": 23.1577703,
    "lon": 72.6576193
  },
  {
    "name": "Boys Hostel",
    "full": "Boys Hostel, Ahmedabad",
    "lat": 23.1591308,
    "lon": 72.6646875
  },
  {
    "name": "Block A",
    "full": "Block A, Ahmedabad",
    "lat": 23.1591478,
    "lon": 72.6642052
  },
  {
    "name": "Block B",
    "full": "Block B, Ahmedabad",
    "lat": 23.1590293,
    "lon": 72.6644331
  },
  {
    "name": "Block C",
    "full": "Block C, Ahmedabad",
    "lat": 23.1589102,
    "lon": 72.6646654
  },
  {
    "name": "Block D",
    "full": "Block D, Ahmedabad",
    "lat": 23.1587835,
    "lon": 72.6648919
  },
  {
    "name": "Block E",
    "full": "Block E, Ahmedabad",
    "lat": 23.1586456,
    "lon": 72.6650823
  },
  {
    "name": "Atria The Business Hub",
    "full": "Atria The Business Hub, Sargasan Crossroad, 382421, Ahmedabad",
    "lat": 23.1932326,
    "lon": 72.6147444
  },
  {
    "name": "Gandhinagar-Ahmedabad Highway",
    "full": "Gandhinagar-Ahmedabad Highway, Ahmedabad",
    "lat": 23.1858318,
    "lon": 72.6388668
  },
  {
    "name": "Gujarat Police Academy, Karai",
    "full": "Gujarat Police Academy, Karai, Ahmedabad",
    "lat": 23.1322424,
    "lon": 72.6506231
  },
  {
    "name": "Krushnakunj complex",
    "full": "Krushnakunj complex, Kudasan area, Urjanagar 1, 382421, Ahmedabad",
    "lat": 23.1843334,
    "lon": 72.6350116
  },
  {
    "name": "Exhibition Hall, Gujarat Institute of Disaster Management",
    "full": "Exhibition Hall, Gujarat Institute of Disaster Management, 382007, Ahmedabad",
    "lat": 23.1573055,
    "lon": 72.6680903
  },
  {
    "name": "Sargasan Village Internal Road",
    "full": "Sargasan Village Internal Road, Ahmedabad",
    "lat": 23.1861153,
    "lon": 72.6173108
  },
  {
    "name": "Sargasan Lake",
    "full": "Sargasan Lake, Ahmedabad",
    "lat": 23.1870174,
    "lon": 72.6168843
  },
  {
    "name": "RTO Gandhinagar",
    "full": "RTO Gandhinagar, Sec 3 New, G Road Nr G 0 Circle, Sector 3, 382006, Ahmedabad",
    "lat": 23.1997415,
    "lon": 72.6243894
  },
  {
    "name": "Bhaskaracharya Institute for Space Applications and Geoinformatics (BISAG)",
    "full": "Bhaskaracharya Institute for Space Applications and Geoinformatics (BISAG), Koba - Gandhinagar Highway, 382007, Ahmedabad",
    "lat": 23.1898748,
    "lon": 72.636871
  },
  {
    "name": "Fun World",
    "full": "Fun World, Ahmedabad",
    "lat": 23.1874507,
    "lon": 72.6405808
  },
  {
    "name": "City Pulse Institute of Film & Television",
    "full": "City Pulse Institute of Film & Television, Gandhinagar-Ahmedabad Highway, 382010, Ahmedabad",
    "lat": 23.1755993,
    "lon": 72.6394018
  },
  {
    "name": "Kanam Residency 1",
    "full": "Kanam Residency 1, Ahmedabad",
    "lat": 23.180181,
    "lon": 72.6304165
  },
  {
    "name": "National Institute of Cooperative Management",
    "full": "National Institute of Cooperative Management, Ahmedabad",
    "lat": 23.1914031,
    "lon": 72.6375077
  },
  {
    "name": "GUDA Garden",
    "full": "GUDA Garden, 382421, Ahmedabad",
    "lat": 23.1639271,
    "lon": 72.6505159
  },
  {
    "name": "Shree Rang Entire Road",
    "full": "Shree Rang Entire Road, Ahmedabad",
    "lat": 23.1659135,
    "lon": 72.650459
  },
  {
    "name": "Shree Range Entire Society",
    "full": "Shree Range Entire Society, Ahmedabad",
    "lat": 23.1659955,
    "lon": 72.6503491
  },
  {
    "name": "NICM",
    "full": "NICM, Ahmedabad",
    "lat": 23.1915463,
    "lon": 72.636425
  },
  {
    "name": "Jainam Bunglows",
    "full": "Jainam Bunglows, Ahmedabad",
    "lat": 23.1631516,
    "lon": 72.6505587
  },
  {
    "name": "Swarnim Bunglows",
    "full": "Swarnim Bunglows, Ahmedabad",
    "lat": 23.1645995,
    "lon": 72.6507098
  },
  {
    "name": "Yash Icon",
    "full": "Yash Icon, Ahmedabad",
    "lat": 23.1654505,
    "lon": 72.6515152
  },
  {
    "name": "GUDA Apartment",
    "full": "GUDA Apartment, Ahmedabad",
    "lat": 23.1660436,
    "lon": 72.6522655
  },
  {
    "name": "Swaminarayan Dham",
    "full": "Swaminarayan Dham, Ahmedabad",
    "lat": 23.1809587,
    "lon": 72.639961
  },
  {
    "name": "SMVS Hospital",
    "full": "SMVS Hospital, 382421, Ahmedabad",
    "lat": 23.1774456,
    "lon": 72.6410054
  },
  {
    "name": "Swaminarayan Dham International School",
    "full": "Swaminarayan Dham International School, Ahmedabad",
    "lat": 23.1806516,
    "lon": 72.6422755
  },
  {
    "name": "Lane 3",
    "full": "Lane 3, Ahmedabad",
    "lat": 23.1660558,
    "lon": 72.6500383
  },
  {
    "name": "Lane 2",
    "full": "Lane 2, Ahmedabad",
    "lat": 23.1660697,
    "lon": 72.6505492
  },
  {
    "name": "Lane 1",
    "full": "Lane 1, Ahmedabad",
    "lat": 23.1660753,
    "lon": 72.6508573
  },
  {
    "name": "Lane 4",
    "full": "Lane 4, Ahmedabad",
    "lat": 23.1660457,
    "lon": 72.6497406
  },
  {
    "name": "GUDA Apartment Rd",
    "full": "GUDA Apartment Rd, Ahmedabad",
    "lat": 23.1660605,
    "lon": 72.6522163
  },
  {
    "name": "Kanam Party Plot",
    "full": "Kanam Party Plot, Ahmedabad",
    "lat": 23.1812451,
    "lon": 72.6297388
  },
  {
    "name": "Swagat Afford",
    "full": "Swagat Afford, Ahmedabad",
    "lat": 23.1910461,
    "lon": 72.6210758
  },
  {
    "name": "Academy Buildind (BISAG)",
    "full": "Academy Buildind (BISAG), Koba - Gandhinagar Highway, 382007, Ahmedabad",
    "lat": 23.1901352,
    "lon": 72.6372731
  },
  {
    "name": "Kanam Residecy 2",
    "full": "Kanam Residecy 2, Reliance Cross Road, Ahmedabad",
    "lat": 23.1805444,
    "lon": 72.6293487
  },
  {
    "name": "Vrundavan Bunglows",
    "full": "Vrundavan Bunglows, 382421, Ahmedabad",
    "lat": 23.1647479,
    "lon": 72.6492373
  },
  {
    "name": "Shubh Aarambh",
    "full": "Shubh Aarambh, Ahmedabad",
    "lat": 23.1840327,
    "lon": 72.6479422
  },
  {
    "name": "School of Achiever",
    "full": "School of Achiever, 382421, Ahmedabad",
    "lat": 23.1705549,
    "lon": 72.6286518
  },
  {
    "name": "IT Park",
    "full": "IT Park, Ahmedabad",
    "lat": 23.1934871,
    "lon": 72.6223078
  },
  {
    "name": "Janvi Farm",
    "full": "Janvi Farm, Ahmedabad",
    "lat": 23.1603477,
    "lon": 72.6455198
  },
  {
    "name": "GUDA Apartment",
    "full": "GUDA Apartment, Ahmedabad",
    "lat": 23.1654006,
    "lon": 72.6504781
  },
  {
    "name": "GUDA Community Hall",
    "full": "GUDA Community Hall, 382421, Ahmedabad",
    "lat": 23.1668822,
    "lon": 72.6576147
  },
  {
    "name": "Bhairavnath Party Plot",
    "full": "Bhairavnath Party Plot, 382421, Ahmedabad",
    "lat": 23.1665575,
    "lon": 72.6491185
  },
  {
    "name": "Reliance Circle",
    "full": "Reliance Circle, Ahmedabad",
    "lat": 23.1854325,
    "lon": 72.6296156
  },
  {
    "name": "Pandit Dindayal Upadhyay Marg",
    "full": "Pandit Dindayal Upadhyay Marg, Ahmedabad",
    "lat": 23.1804523,
    "lon": 72.6291547
  },
  {
    "name": "Gandhinagar Bypass Road",
    "full": "Gandhinagar Bypass Road, Ahmedabad",
    "lat": 23.185207,
    "lon": 72.6244667
  },
  {
    "name": "KH Road",
    "full": "KH Road, Ahmedabad",
    "lat": 23.1998785,
    "lon": 72.6153716
  },
  {
    "name": "Hrudhyam Commercial - NCON INFRA",
    "full": "Hrudhyam Commercial - NCON INFRA, Besides Gokuldham Apartments, Opp. Jay Yogeshwar Mall, Koba - Gandhinagar Highway, 382421, Ahmedabad",
    "lat": 23.1714336,
    "lon": 72.6356892
  },
  {
    "name": "GIFT City Road",
    "full": "GIFT City Road, Ahmedabad",
    "lat": 23.1582929,
    "lon": 72.6814452
  },
  {
    "name": "GIFT City Road",
    "full": "GIFT City Road, Ahmedabad",
    "lat": 23.1583048,
    "lon": 72.6817568
  },
  {
    "name": "GIFT City Road",
    "full": "GIFT City Road, Ahmedabad",
    "lat": 23.1647033,
    "lon": 72.6750072
  },
  {
    "name": "Joggers Park",
    "full": "Joggers Park, 382421, Ahmedabad",
    "lat": 23.1619462,
    "lon": 72.6503039
  },
  {
    "name": "Pramukh Corporate",
    "full": "Pramukh Corporate, 382421, Ahmedabad",
    "lat": 23.1582206,
    "lon": 72.6509245
  },
  {
    "name": "Vrundavan Homes",
    "full": "Vrundavan Homes, 382421, Ahmedabad",
    "lat": 23.1631798,
    "lon": 72.6499747
  },
  {
    "name": "Raysan",
    "full": "Raysan, Ahmedabad",
    "lat": 23.1669757,
    "lon": 72.6604899
  },
  {
    "name": "Radesan",
    "full": "Radesan, Ahmedabad",
    "lat": 23.1761512,
    "lon": 72.6548279
  },
  {
    "name": "Priya Farm",
    "full": "Priya Farm, 382421, Ahmedabad",
    "lat": 23.1680563,
    "lon": 72.6422237
  },
  {
    "name": "Block L & M",
    "full": "Block L & M, Ahmedabad",
    "lat": 23.1860482,
    "lon": 72.6280832
  },
  {
    "name": "Suyash Status",
    "full": "Suyash Status, Suyash Status, Randesan Road, 382007, Ahmedabad",
    "lat": 23.1751174,
    "lon": 72.6416569
  },
  {
    "name": "Vedika Happy Valley Homes",
    "full": "Vedika Happy Valley Homes, Vedika Happy Valley Homes, Randesan Road, 382007, Ahmedabad",
    "lat": 23.1752131,
    "lon": 72.6421998
  },
  {
    "name": "BAPS Swaminarayan Vidyamandir Raysan",
    "full": "BAPS Swaminarayan Vidyamandir Raysan, BAPS Swaminarayan Vidyamandir Raysan, Randesan Road, 382007, Ahmedabad",
    "lat": 23.1708283,
    "lon": 72.6449614
  },
  {
    "name": "Gandhi Nagar bypass",
    "full": "Gandhi Nagar bypass, Ahmedabad",
    "lat": 23.1831091,
    "lon": 72.6742133
  },
  {
    "name": "Gandhinagar Bypass Road",
    "full": "Gandhinagar Bypass Road, Ahmedabad",
    "lat": 23.1832743,
    "lon": 72.6779584
  },
  {
    "name": "Gandhinagar Bypass Road",
    "full": "Gandhinagar Bypass Road, Ahmedabad",
    "lat": 23.1831924,
    "lon": 72.6780252
  },
  {
    "name": "Randesan Road",
    "full": "Randesan Road, Ahmedabad",
    "lat": 23.1753336,
    "lon": 72.6510021
  },
  {
    "name": "Raysan Road",
    "full": "Raysan Road, Ahmedabad",
    "lat": 23.1665031,
    "lon": 72.6541059
  },
  {
    "name": "Aqualine SEZ",
    "full": "Aqualine SEZ, Ahmedabad",
    "lat": 23.1482167,
    "lon": 72.6550407
  },
  {
    "name": "Kudasan-Por Road",
    "full": "Kudasan-Por Road, Ahmedabad",
    "lat": 23.1795302,
    "lon": 72.6330499
  },
  {
    "name": "Randesan Road",
    "full": "Randesan Road, Ahmedabad",
    "lat": 23.1745463,
    "lon": 72.6477302
  },
  {
    "name": "Randesan Road",
    "full": "Randesan Road, Ahmedabad",
    "lat": 23.1745635,
    "lon": 72.637572
  },
  {
    "name": "Randesan Road",
    "full": "Randesan Road, Ahmedabad",
    "lat": 23.1743418,
    "lon": 72.642734
  },
  {
    "name": "Service Road",
    "full": "Service Road, Ahmedabad",
    "lat": 23.1532742,
    "lon": 72.6354195
  },
  {
    "name": "Aqualine SEZ",
    "full": "Aqualine SEZ, Ahmedabad",
    "lat": 23.1532631,
    "lon": 72.6354606
  },
  {
    "name": "Service Road",
    "full": "Service Road, Ahmedabad",
    "lat": 23.1577793,
    "lon": 72.6359382
  },
  {
    "name": "Aawaass Road",
    "full": "Aawaass Road, Ahmedabad",
    "lat": 23.1821591,
    "lon": 72.6526381
  },
  {
    "name": "Pandit Dindayal Upadhyay Marg",
    "full": "Pandit Dindayal Upadhyay Marg, Ahmedabad",
    "lat": 23.1742335,
    "lon": 72.6287846
  },
  {
    "name": "Pandit Dindayal Upadhyay Marg",
    "full": "Pandit Dindayal Upadhyay Marg, Ahmedabad",
    "lat": 23.1742158,
    "lon": 72.6287364
  },
  {
    "name": "Infocity Flyover",
    "full": "Infocity Flyover, Ahmedabad",
    "lat": 23.1968489,
    "lon": 72.6312254
  },
  {
    "name": "Infocity Flyover",
    "full": "Infocity Flyover, Ahmedabad",
    "lat": 23.1967056,
    "lon": 72.6241432
  },
  {
    "name": "Infocity Flyover",
    "full": "Infocity Flyover, Ahmedabad",
    "lat": 23.1969731,
    "lon": 72.631224
  },
  {
    "name": "Gandhinagar Bypass Road",
    "full": "Gandhinagar Bypass Road, Ahmedabad",
    "lat": 23.1858293,
    "lon": 72.6381976
  },
  {
    "name": "Violet Line",
    "full": "Violet Line, Ahmedabad",
    "lat": 23.1539782,
    "lon": 72.6668204
  },
  {
    "name": "GIFT City Road",
    "full": "GIFT City Road, Ahmedabad",
    "lat": 23.1647568,
    "lon": 72.6775439
  },
  {
    "name": "GIFT City Road",
    "full": "GIFT City Road, Ahmedabad",
    "lat": 23.1653234,
    "lon": 72.6756524
  },
  {
    "name": "Service Road",
    "full": "Service Road, Ahmedabad",
    "lat": 23.1601442,
    "lon": 72.6361883
  },
  {
    "name": "GEER Foundation Office",
    "full": "GEER Foundation Office, 382007, Ahmedabad",
    "lat": 23.1954366,
    "lon": 72.6448929
  },
  {
    "name": "Botanical Garden",
    "full": "Botanical Garden, Ahmedabad",
    "lat": 23.1933836,
    "lon": 72.647755
  },
  {
    "name": "Cactus Garden",
    "full": "Cactus Garden, Ahmedabad",
    "lat": 23.1925239,
    "lon": 72.6485821
  },
  {
    "name": "Gandhinagar Bypass Road",
    "full": "Gandhinagar Bypass Road, Ahmedabad",
    "lat": 23.1889325,
    "lon": 72.6199477
  },
  {
    "name": "Indroda Broken Fort - K2",
    "full": "Indroda Broken Fort - K2, Ahmedabad",
    "lat": 23.198784,
    "lon": 72.6597295
  },
  {
    "name": "PDPU Solar Park",
    "full": "PDPU Solar Park, Ahmedabad",
    "lat": 23.1534609,
    "lon": 72.6693383
  },
  {
    "name": "Butterfly Park",
    "full": "Butterfly Park, Ahmedabad",
    "lat": 23.1939727,
    "lon": 72.6730648
  },
  {
    "name": "Ambapur ni Vav",
    "full": "Ambapur ni Vav, Ahmedabad",
    "lat": 23.1520417,
    "lon": 72.6109998
  },
  {
    "name": "Ambapur Lake",
    "full": "Ambapur Lake, Ahmedabad",
    "lat": 23.1502191,
    "lon": 72.6073109
  },
  {
    "name": "Sarthak Mall Garden",
    "full": "Sarthak Mall Garden, Ahmedabad",
    "lat": 23.1951349,
    "lon": 72.6149049
  },
  {
    "name": "Pramukh Tangent",
    "full": "Pramukh Tangent, Gandhinagar Bypass Road, 382421, Ahmedabad",
    "lat": 23.192155,
    "lon": 72.6166214
  },
  {
    "name": "Koba - Gandhinagar Highway",
    "full": "Koba - Gandhinagar Highway, Ahmedabad",
    "lat": 23.1764479,
    "lon": 72.6374154
  },
  {
    "name": "Service Road",
    "full": "Service Road, Ahmedabad",
    "lat": 23.1961154,
    "lon": 72.6383699
  },
  {
    "name": "SBI bank",
    "full": "SBI bank, Ahmedabad",
    "lat": 23.155997,
    "lon": 72.6656126
  },
  {
    "name": "Mechanical workshop",
    "full": "Mechanical workshop, Ahmedabad",
    "lat": 23.1548381,
    "lon": 72.6662562
  },
  {
    "name": "Gandhinagar",
    "full": "Gandhinagar, Ahmedabad",
    "lat": 23.2209896,
    "lon": 72.6458186
  },
  {
    "name": "Violet Line",
    "full": "Violet Line, Ahmedabad",
    "lat": 23.1539399,
    "lon": 72.6668534
  },
  {
    "name": "Infocity Flyover",
    "full": "Infocity Flyover, Ahmedabad",
    "lat": 23.1963744,
    "lon": 72.6379679
  },
  {
    "name": "Sarkhej-Gandhinagar Highway",
    "full": "Sarkhej-Gandhinagar Highway, Ahmedabad",
    "lat": 23.1878623,
    "lon": 72.6057991
  },
  {
    "name": "Raksha Shakti Flyover",
    "full": "Raksha Shakti Flyover, Ahmedabad",
    "lat": 23.1878785,
    "lon": 72.638697
  },
  {
    "name": "Raksha Shakti Flyover",
    "full": "Raksha Shakti Flyover, Ahmedabad",
    "lat": 23.1879174,
    "lon": 72.6388457
  },
  {
    "name": "Raksha Shakti Flyover",
    "full": "Raksha Shakti Flyover, Ahmedabad",
    "lat": 23.1836539,
    "lon": 72.6382253
  },
  {
    "name": "Raksha Shakti Flyover",
    "full": "Raksha Shakti Flyover, Ahmedabad",
    "lat": 23.1836312,
    "lon": 72.6383604
  },
  {
    "name": "Raksha Shakti Flyover",
    "full": "Raksha Shakti Flyover, Ahmedabad",
    "lat": 23.1899917,
    "lon": 72.6389366
  },
  {
    "name": "Raksha Shakti Flyover",
    "full": "Raksha Shakti Flyover, Ahmedabad",
    "lat": 23.1899548,
    "lon": 72.6390848
  },
  {
    "name": "Raksha Shakti Flyover",
    "full": "Raksha Shakti Flyover, Ahmedabad",
    "lat": 23.1810946,
    "lon": 72.6379414
  },
  {
    "name": "Raksha Shakti Flyover",
    "full": "Raksha Shakti Flyover, Ahmedabad",
    "lat": 23.1809564,
    "lon": 72.6380605
  },
  {
    "name": "Infocity Flyover Ramp",
    "full": "Infocity Flyover Ramp, Ahmedabad",
    "lat": 23.1971849,
    "lon": 72.633539
  },
  {
    "name": "Infocity Flyover Ramp",
    "full": "Infocity Flyover Ramp, Ahmedabad",
    "lat": 23.1970717,
    "lon": 72.6348974
  },
  {
    "name": "Siddharaj zold road",
    "full": "Siddharaj zold road, Ahmedabad",
    "lat": 23.1932879,
    "lon": 72.6138385
  },
  {
    "name": "Zold Inner Pathway",
    "full": "Zold Inner Pathway, Ahmedabad",
    "lat": 23.1942031,
    "lon": 72.6134526
  },
  {
    "name": "Zold Outer Pathway",
    "full": "Zold Outer Pathway, Ahmedabad",
    "lat": 23.1941971,
    "lon": 72.6136527
  },
  {
    "name": "Siddharaj Zold",
    "full": "Siddharaj Zold, 382421, Ahmedabad",
    "lat": 23.1941885,
    "lon": 72.613445
  },
  {
    "name": "Radiant School of Science",
    "full": "Radiant School of Science, Plot No. 131/A, T.P. no. 9, 382421, Ahmedabad",
    "lat": 23.1977877,
    "lon": 72.6056936
  },
  {
    "name": "Ratnaraj Residency",
    "full": "Ratnaraj Residency, Siddharaj zold road, 382421, Ahmedabad",
    "lat": 23.1932379,
    "lon": 72.6134414
  },
  {
    "name": "Radhey Infinity",
    "full": "Radhey Infinity, Gandhinagar Bypass Road, 382421, Ahmedabad",
    "lat": 23.1848258,
    "lon": 72.6395744
  },
  {
    "name": "Shreedhar Bhakti",
    "full": "Shreedhar Bhakti, Gandhinagar-Ahmedabad Highway, 382421, Ahmedabad",
    "lat": 23.18333,
    "lon": 72.6399914
  },
  {
    "name": "Somnath Park Society Road",
    "full": "Somnath Park Society Road, Ahmedabad",
    "lat": 23.1954358,
    "lon": 72.6147337
  },
  {
    "name": "Red Line, Ahmedabad Metro",
    "full": "Red Line, Ahmedabad Metro, Ahmedabad",
    "lat": 23.1243478,
    "lon": 72.6215472
  },
  {
    "name": "Red Line, Ahmedabad Metro",
    "full": "Red Line, Ahmedabad Metro, Ahmedabad",
    "lat": 23.1243674,
    "lon": 72.6215081
  },
  {
    "name": "Infocity",
    "full": "Infocity, Ahmedabad",
    "lat": 23.1920904,
    "lon": 72.639724
  },
  {
    "name": "Dholakuva Circle",
    "full": "Dholakuva Circle, Ahmedabad",
    "lat": 23.1858983,
    "lon": 72.6433329
  },
  {
    "name": "Randesan",
    "full": "Randesan, Ahmedabad",
    "lat": 23.1791128,
    "lon": 72.6473026
  },
  {
    "name": "Raysan",
    "full": "Raysan, Ahmedabad",
    "lat": 23.1663775,
    "lon": 72.6483285
  },
  {
    "name": "GNLU",
    "full": "GNLU, Ahmedabad",
    "lat": 23.1543875,
    "lon": 72.6474203
  },
  {
    "name": "Koba Gam",
    "full": "Koba Gam, Ahmedabad",
    "lat": 23.1476098,
    "lon": 72.6439055
  },
  {
    "name": "Juna Koba",
    "full": "Juna Koba, Ahmedabad",
    "lat": 23.1419251,
    "lon": 72.6385533
  },
  {
    "name": "Koba Circle",
    "full": "Koba Circle, Ahmedabad",
    "lat": 23.1322575,
    "lon": 72.6310538
  },
  {
    "name": "Red Line, Ahmedabad Metro",
    "full": "Red Line, Ahmedabad Metro, Ahmedabad",
    "lat": 23.1532016,
    "lon": 72.6469274
  },
  {
    "name": "Red Line, Ahmedabad Metro",
    "full": "Red Line, Ahmedabad Metro, Ahmedabad",
    "lat": 23.1532123,
    "lon": 72.6469005
  },
  {
    "name": "PDPU",
    "full": "PDPU, Ahmedabad",
    "lat": 23.1549158,
    "lon": 72.6611118
  },
  {
    "name": "Infocity Flyover",
    "full": "Infocity Flyover, Ahmedabad",
    "lat": 23.1966568,
    "lon": 72.6246527
  },
  {
    "name": "Infocity Flyover",
    "full": "Infocity Flyover, Ahmedabad",
    "lat": 23.196438,
    "lon": 72.6237649
  },
  {
    "name": "Infocity Flyover",
    "full": "Infocity Flyover, Ahmedabad",
    "lat": 23.1968554,
    "lon": 72.6248282
  },
  {
    "name": "Infocity Flyover",
    "full": "Infocity Flyover, Ahmedabad",
    "lat": 23.1962034,
    "lon": 72.6391426
  },
  {
    "name": "Infocity Flyover",
    "full": "Infocity Flyover, Ahmedabad",
    "lat": 23.1963123,
    "lon": 72.6375911
  },
  {
    "name": "Infocity Flyover",
    "full": "Infocity Flyover, Ahmedabad",
    "lat": 23.1961819,
    "lon": 72.6383034
  },
  {
    "name": "INFOSENSE HOUSE",
    "full": "INFOSENSE HOUSE, 135, 382421, Ahmedabad",
    "lat": 23.1596587,
    "lon": 72.6492692
  },
  {
    "name": "Shreeji Signature",
    "full": "Shreeji Signature, Ahmedabad",
    "lat": 23.1847104,
    "lon": 72.6229101
  },
  {
    "name": "Codoffer Infotech",
    "full": "Codoffer Infotech, 204 D, Pandit Dindayal Upadhyay Marg, 382421, Ahmedabad",
    "lat": 23.1819924,
    "lon": 72.6280907
  },
  {
    "name": "Red Line, Ahmedabad Metro",
    "full": "Red Line, Ahmedabad Metro, Ahmedabad",
    "lat": 23.1553236,
    "lon": 72.6477872
  },
  {
    "name": "Red Line, Ahmedabad Metro",
    "full": "Red Line, Ahmedabad Metro, Ahmedabad",
    "lat": 23.1552546,
    "lon": 72.6478017
  },
  {
    "name": "Radhey Infinity",
    "full": "Radhey Infinity, Gandhinagar Bypass Road, 382421, Ahmedabad",
    "lat": 23.1843861,
    "lon": 72.6394739
  },
  {
    "name": "Radhey Infinity",
    "full": "Radhey Infinity, Gandhinagar Bypass Road, 382421, Ahmedabad",
    "lat": 23.184815,
    "lon": 72.6394699
  },
  {
    "name": "Radhey Infinity",
    "full": "Radhey Infinity, Gandhinagar Bypass Road, 382421, Ahmedabad",
    "lat": 23.184763,
    "lon": 72.6399503
  },
  {
    "name": "Radhey Infinity",
    "full": "Radhey Infinity, Gandhinagar Bypass Road, 382421, Ahmedabad",
    "lat": 23.1844159,
    "lon": 72.6399485
  },
  {
    "name": "GIFT City Road",
    "full": "GIFT City Road, Ahmedabad",
    "lat": 23.1645624,
    "lon": 72.6750766
  },
  {
    "name": "Kabaddi ground",
    "full": "Kabaddi ground, Ahmedabad",
    "lat": 23.1541131,
    "lon": 72.6692464
  },
  {
    "name": "Highrise mess",
    "full": "Highrise mess, Ahmedabad",
    "lat": 23.1569085,
    "lon": 72.6689096
  },
  {
    "name": "PDPU Highrise Hostel",
    "full": "PDPU Highrise Hostel, Ahmedabad",
    "lat": 23.157854,
    "lon": 72.6699139
  },
  {
    "name": "Prasang Farm Party Plot",
    "full": "Prasang Farm Party Plot, Bhagat Singh Marg, 382421, Ahmedabad",
    "lat": 23.1842426,
    "lon": 72.6237823
  },
  {
    "name": "Faculty Block 1",
    "full": "Faculty Block 1, Ahmedabad",
    "lat": 23.1892391,
    "lon": 72.6287703
  },
  {
    "name": "Faculty Block 3",
    "full": "Faculty Block 3, Ahmedabad",
    "lat": 23.1895459,
    "lon": 72.6281182
  },
  {
    "name": "Faculty Block 4",
    "full": "Faculty Block 4, Ahmedabad",
    "lat": 23.189354,
    "lon": 72.6278171
  },
  {
    "name": "House of Residence Women",
    "full": "House of Residence Women, Ahmedabad",
    "lat": 23.1903764,
    "lon": 72.6281459
  },
  {
    "name": "J-wing",
    "full": "J-wing, Ahmedabad",
    "lat": 23.1902476,
    "lon": 72.6281839
  },
  {
    "name": "K Wing",
    "full": "K Wing, Ahmedabad",
    "lat": 23.1906109,
    "lon": 72.6281249
  },
  {
    "name": "GIFT City Road",
    "full": "GIFT City Road, Ahmedabad",
    "lat": 23.1647458,
    "lon": 72.6753479
  },
  {
    "name": "GIFT City Road",
    "full": "GIFT City Road, Ahmedabad",
    "lat": 23.1648659,
    "lon": 72.6775462
  },
  {
    "name": "GIFT City Road",
    "full": "GIFT City Road, Ahmedabad",
    "lat": 23.16487,
    "lon": 72.6744475
  },
  {
    "name": "Sewage Treatment Plant",
    "full": "Sewage Treatment Plant, Ahmedabad",
    "lat": 23.186075,
    "lon": 72.6269689
  },
  {
    "name": "Net House",
    "full": "Net House, Ahmedabad",
    "lat": 23.1894037,
    "lon": 72.6295494
  },
  {
    "name": "Net House",
    "full": "Net House, Ahmedabad",
    "lat": 23.1892767,
    "lon": 72.6295645
  },
  {
    "name": "DG Room",
    "full": "DG Room, Ahmedabad",
    "lat": 23.1858659,
    "lon": 72.6289663
  },
  {
    "name": "Substation",
    "full": "Substation, Ahmedabad",
    "lat": 23.1858475,
    "lon": 72.6291497
  },
  {
    "name": "LT Parking",
    "full": "LT Parking, Ahmedabad",
    "lat": 23.1859518,
    "lon": 72.6287933
  },
  {
    "name": "Faculty Block 2",
    "full": "Faculty Block 2, Ahmedabad",
    "lat": 23.1893728,
    "lon": 72.6284835
  },
  {
    "name": "Tulip Garden",
    "full": "Tulip Garden, Ahmedabad",
    "lat": 23.1861738,
    "lon": 72.6264906
  },
  {
    "name": "Lecture Theatre 3",
    "full": "Lecture Theatre 3, Ahmedabad",
    "lat": 23.1865928,
    "lon": 72.6288703
  },
  {
    "name": "Admin",
    "full": "Admin, Ahmedabad",
    "lat": 23.189078,
    "lon": 72.627842
  },
  {
    "name": "B Wing",
    "full": "B Wing, Ahmedabad",
    "lat": 23.1874216,
    "lon": 72.6266969
  },
  {
    "name": "Composting",
    "full": "Composting, Ahmedabad",
    "lat": 23.1863297,
    "lon": 72.6265527
  },
  {
    "name": "Laxmi Bakery",
    "full": "Laxmi Bakery, Opp to Old HoR, Ahmedabad",
    "lat": 23.1883954,
    "lon": 72.6267041
  },
  {
    "name": "NesCafe",
    "full": "NesCafe, Ahmedabad",
    "lat": 23.1885664,
    "lon": 72.6272818
  },
  {
    "name": "Kaka's Shop",
    "full": "Kaka's Shop, Ahmedabad",
    "lat": 23.1885191,
    "lon": 72.6270339
  },
  {
    "name": "K ++",
    "full": "K ++, Ahmedabad",
    "lat": 23.1886074,
    "lon": 72.6269134
  },
  {
    "name": "Amul Store",
    "full": "Amul Store, Ahmedabad",
    "lat": 23.1885812,
    "lon": 72.6269487
  },
  {
    "name": "SBG room",
    "full": "SBG room, Ahmedabad",
    "lat": 23.1885442,
    "lon": 72.6270018
  },
  {
    "name": "Juice Centre",
    "full": "Juice Centre, Ahmedabad",
    "lat": 23.188488,
    "lon": 72.6270739
  },
  {
    "name": "DAU General Clinic",
    "full": "DAU General Clinic, Ahmedabad",
    "lat": 23.1883659,
    "lon": 72.6269437
  },
  {
    "name": "Purple Line Extension",
    "full": "Purple Line Extension, Ahmedabad",
    "lat": 23.1695462,
    "lon": 72.6805461
  },
  {
    "name": "old National Highway 8C",
    "full": "old National Highway 8C, Ahmedabad",
    "lat": 23.1114407,
    "lon": 72.6094931
  },
  {
    "name": "Narmada Canal Watershed",
    "full": "Narmada Canal Watershed, Ahmedabad",
    "lat": 23.4298154,
    "lon": 71.4294082
  },
  {
    "name": "Gandhinagar",
    "full": "Gandhinagar, Ahmedabad",
    "lat": 23.281957,
    "lon": 72.6828314
  },
  {
    "name": "Ahmedabad",
    "full": "Ahmedabad, Ahmedabad",
    "lat": 22.7456634,
    "lon": 72.3413034
  },
  {
    "name": "State Highway 71",
    "full": "State Highway 71, Ahmedabad",
    "lat": 23.3958553,
    "lon": 72.614132
  },
  {
    "name": "SG Highway",
    "full": "SG Highway, Ahmedabad",
    "lat": 23.104557,
    "lon": 72.6029563
  },
  {
    "name": "Lab Building",
    "full": "Lab Building, Ahmedabad",
    "lat": 23.1870247,
    "lon": 72.6279889
  },
  {
    "name": "CEP Block",
    "full": "CEP Block, Ahmedabad",
    "lat": 23.1883944,
    "lon": 72.6278488
  },
  {
    "name": "Canteen",
    "full": "Canteen, Ahmedabad",
    "lat": 23.1863413,
    "lon": 72.6329016
  },
  {
    "name": "Gandhinagar Taluka",
    "full": "Gandhinagar Taluka, Ahmedabad",
    "lat": 23.242107,
    "lon": 72.6678443
  },
  {
    "name": "SabarmatiTaluka",
    "full": "SabarmatiTaluka, Ahmedabad",
    "lat": 23.0629435,
    "lon": 72.5712146
  },
  {
    "name": "Violet Line",
    "full": "Violet Line, Ahmedabad",
    "lat": 23.1539399,
    "lon": 72.6665327
  },
  {
    "name": "Violet Line",
    "full": "Violet Line, Ahmedabad",
    "lat": 23.1539782,
    "lon": 72.6664869
  },
  {
    "name": "Yellow Line: Mahatma Mandir → Motera Stadium",
    "full": "Yellow Line: Mahatma Mandir → Motera Stadium, Ahmedabad",
    "lat": 23.1189341,
    "lon": 72.598698
  },
  {
    "name": "Yellow Line: Motera Stadium → Mahatma Mandir",
    "full": "Yellow Line: Motera Stadium → Mahatma Mandir, Ahmedabad",
    "lat": 23.1684016,
    "lon": 72.6308693
  },
  {
    "name": "Hajipur PHC",
    "full": "Hajipur PHC, 382721, Ahmedabad",
    "lat": 23.1758989,
    "lon": 72.4151172
  },
  {
    "name": "Arvind Clinic",
    "full": "Arvind Clinic, 382721, Ahmedabad",
    "lat": 23.137604,
    "lon": 72.44412
  },
  {
    "name": "SubCentre, Moti Bhoyan",
    "full": "SubCentre, Moti Bhoyan, 382721, Ahmedabad",
    "lat": 23.1742756,
    "lon": 72.4490753
  },
  {
    "name": "SubCentre, Vansajada",
    "full": "SubCentre, Vansajada, 382721, Ahmedabad",
    "lat": 23.1942963,
    "lon": 72.4254792
  },
  {
    "name": "SubCentre, Jethalaj",
    "full": "SubCentre, Jethalaj, 382165, Ahmedabad",
    "lat": 23.1308936,
    "lon": 72.4265179
  },
  {
    "name": "Alpha College of Engineering",
    "full": "Alpha College of Engineering, Ahmedabad",
    "lat": 23.1437636,
    "lon": 72.4406666
  },
  {
    "name": "Gelco Electronics Private Limited,",
    "full": "Gelco Electronics Private Limited,, Block No-142, Nr. Jalaram ceramics, Khatraj-kadi Road, Karoli-382721. Taluka-Kalol, Gandhinagar, Gujarat, India, 382721, Ahmedabad",
    "lat": 23.1498214,
    "lon": 72.434153
  },
  {
    "name": "Gelco Electronics Private Limited",
    "full": "Gelco Electronics Private Limited, Block No-142,, Nr. Jalaram ceramics, Khatraj-kadi Road, Karoli-382721. Taluka-Kalol, Gandhinagar, Gujarat, India, 382721, Ahmedabad",
    "lat": 23.1498216,
    "lon": 72.434172
  },
  {
    "name": "ખાત્રજ",
    "full": "ખાત્રજ, Ahmedabad",
    "lat": 23.1365123,
    "lon": 72.4442232
  },
  {
    "name": "Vadavi",
    "full": "Vadavi, Ahmedabad",
    "lat": 23.202845,
    "lon": 72.3996187
  },
  {
    "name": "Western Dedicated Freight Corridor",
    "full": "Western Dedicated Freight Corridor, Ahmedabad",
    "lat": 23.2380463,
    "lon": 72.4486069
  },
  {
    "name": "Western Dedicated Freight Corridor",
    "full": "Western Dedicated Freight Corridor, Ahmedabad",
    "lat": 23.2380334,
    "lon": 72.4486623
  },
  {
    "name": "Alpha College of Engineering",
    "full": "Alpha College of Engineering, Ahmedabad",
    "lat": 23.1437503,
    "lon": 72.4407069
  },
  {
    "name": "Moti Bhoyan",
    "full": "Moti Bhoyan, Ahmedabad",
    "lat": 23.1709757,
    "lon": 72.4586857
  },
  {
    "name": "JK Lakshmi Cement",
    "full": "JK Lakshmi Cement, Ahmedabad",
    "lat": 23.1766687,
    "lon": 72.4413086
  },
  {
    "name": "ખાત્રજ તળાવ",
    "full": "ખાત્રજ તળાવ, Ahmedabad",
    "lat": 23.1386927,
    "lon": 72.445355
  },
  {
    "name": "વહાણવટી સિકોતર માતાજી મંદિર",
    "full": "વહાણવટી સિકોતર માતાજી મંદિર, Ahmedabad",
    "lat": 23.1421206,
    "lon": 72.4179392
  },
  {
    "name": "Mahesana",
    "full": "Mahesana, Ahmedabad",
    "lat": 23.5705282,
    "lon": 72.4035195
  },
  {
    "name": "Thol Lake WLS",
    "full": "Thol Lake WLS, Ahmedabad",
    "lat": 23.1421624,
    "lon": 72.4106312
  },
  {
    "name": "Kadi Taluka",
    "full": "Kadi Taluka, Ahmedabad",
    "lat": 23.2302718,
    "lon": 72.3397595
  },
  {
    "name": "Kalol Taluka",
    "full": "Kalol Taluka, Ahmedabad",
    "lat": 23.2395296,
    "lon": 72.5314257
  },
  {
    "name": "Hindustan Petroleum",
    "full": "Hindustan Petroleum, Ahmedabad",
    "lat": 23.1768017,
    "lon": 72.5737935
  },
  {
    "name": "R World",
    "full": "R World, Ahmedabad",
    "lat": 23.1801006,
    "lon": 72.565489
  },
  {
    "name": "Dadabhagwan Trimandir - Adalaj",
    "full": "Dadabhagwan Trimandir - Adalaj, Dada Bhagwan Trimandir, Ahmedabad - Kalol Highway, 382421, Ahmedabad",
    "lat": 23.1784824,
    "lon": 72.5721279
  },
  {
    "name": "Adalaj",
    "full": "Adalaj, Ahmedabad",
    "lat": 23.1646919,
    "lon": 72.5821046
  },
  {
    "name": "Amba School for Excellence",
    "full": "Amba School for Excellence, Ahmedabad",
    "lat": 23.1889236,
    "lon": 72.577756
  },
  {
    "name": "kasturi nagar Iffco",
    "full": "kasturi nagar Iffco, SH-41, Ahmedabad",
    "lat": 23.1885217,
    "lon": 72.5563382
  },
  {
    "name": "Jamyatpura",
    "full": "Jamyatpura, Adalaj -sarkhej road, Ahmedabad",
    "lat": 23.1760426,
    "lon": 72.5571586
  },
  {
    "name": "Khodiyar Junction",
    "full": "Khodiyar Junction, Near NH 147, 382421, Ahmedabad",
    "lat": 23.1559206,
    "lon": 72.5483
  },
  {
    "name": "Amba Health Centre & Hospital",
    "full": "Amba Health Centre & Hospital, Ahmedabad-Kalol Highway, 382421, Ahmedabad",
    "lat": 23.1764265,
    "lon": 72.5753408
  },
  {
    "name": "Amba Food Factory",
    "full": "Amba Food Factory, Ahmedabad",
    "lat": 23.1803117,
    "lon": 72.5753396
  },
  {
    "name": "Bhojnalaya - Unodri Bhavan",
    "full": "Bhojnalaya - Unodri Bhavan, Ahmedabad",
    "lat": 23.1799492,
    "lon": 72.5730115
  },
  {
    "name": "Stop N Stay",
    "full": "Stop N Stay, Ahmedabad",
    "lat": 23.1800454,
    "lon": 72.5741461
  },
  {
    "name": "Nirant",
    "full": "Nirant, Nirant Building, Simandhar City, 382421, Ahmedabad",
    "lat": 23.1801909,
    "lon": 72.5747496
  },
  {
    "name": "Tragad",
    "full": "Tragad, Ahmedabad",
    "lat": 23.1283467,
    "lon": 72.558657
  },
  {
    "name": "Entrance 2",
    "full": "Entrance 2, Ahmedabad",
    "lat": 23.1691015,
    "lon": 72.5383757
  },
  {
    "name": "Exit 1",
    "full": "Exit 1, Ahmedabad",
    "lat": 23.1690171,
    "lon": 72.5364813
  },
  {
    "name": "Entrance 3",
    "full": "Entrance 3, Ahmedabad",
    "lat": 23.1694586,
    "lon": 72.5389262
  },
  {
    "name": "Entrance 1",
    "full": "Entrance 1, Ahmedabad",
    "lat": 23.1688862,
    "lon": 72.5380352
  },
  {
    "name": "Amba Cash N Carry",
    "full": "Amba Cash N Carry, Ahmedabad",
    "lat": 23.1876995,
    "lon": 72.5737904
  },
  {
    "name": "Nishra Restaurant",
    "full": "Nishra Restaurant, Ahmedabad",
    "lat": 23.1871084,
    "lon": 72.5728883
  },
  {
    "name": "F1 Pharma Canteen",
    "full": "F1 Pharma Canteen, Ahmedabad",
    "lat": 23.1283124,
    "lon": 72.5473147
  },
  {
    "name": "NIM Auditorium",
    "full": "NIM Auditorium, Ahmedabad",
    "lat": 23.1287897,
    "lon": 72.5463512
  },
  {
    "name": "New Parking",
    "full": "New Parking, Ahmedabad",
    "lat": 23.1289599,
    "lon": 72.5442698
  },
  {
    "name": "Main Parking",
    "full": "Main Parking, Ahmedabad",
    "lat": 23.1285356,
    "lon": 72.541247
  },
  {
    "name": "Kalupur Cooperative Commercial BANK",
    "full": "Kalupur Cooperative Commercial BANK, Ahmedabad",
    "lat": 23.1282051,
    "lon": 72.5439614
  },